,Parcel ID,Address,Sale Date,Sale Price,Qualified Sales,Reason,Acres,Parcel  Class ,Year  Built ,Square Ft ,Price Per  Square Ft ,lat,long
0,08065 000227,5149 GOLDEN OAK CV,10/26/30,"$382,515.00 ",Qualified,FM,0.16,Residential,2020,2973,$128.66 ,34.2405354,-83.912159
1,15025A000042,3656 CANDLER RD,8/11/23,"$270,900.00 ",Qualified,FM,1.86,Residential,1996,1404,$0.00 ,34.1821119,-83.75823
2,10053 000019,4876 PATTERSON LN,8/7/23,"$300,000.00 ",Qualified,FM,2.35,Residential,2005,1943,$154.40 ,34.395485,-83.931653
3,15039S000093,6808 BAYBERRY RDG,8/7/23,"$550,000.00 ",Qualified,FM,0.18,Residential,2015,1942,$283.21 ,34.1368654,-83.8514852
4,15022J000252,3106 SE LEGACY GLEN PATH,8/4/23,"$325,000.00 ",Qualified,FM,0.31,Residential,2007,2149,$151.23 ,34.2798019,-83.7641268
5,15044I000003,3959 PARKS RD,8/4/23,"$357,000.00 ",Qualified,FM,0.27,Residential,1996,1180,$302.54 ,34.2088877,-83.8742357
6,08041 001015,4328 WOODHAVEN LN,8/3/23,"$310,900.00 ",Qualified,FM,0.46,Residential,1972,1677,$185.39 ,34.2554382,-83.8987087
7,15046 000032D,4951 OLD ORR RD,8/2/23,"$250,000.00 ",Qualified,FM,4.13,Residential,1978,1232,$202.92 ,34.1692273,-83.909676
8,15022J000211,3039 SE HERITAGE GLEN DR,8/1/23,"$372,500.00 ",Qualified,FM,0.24,Residential,2019,2388,$155.99 ,34.2784217,-83.7650394
9,01097B000062,2350 NE MARBLERIDGE DR,7/31/23,"$278,999.00 ",Qualified,FM,0.02,Residential,2018,1540,$181.17 ,34.332781,-83.839331
10,10105 007012,682 NW TOMMY AARON DR,7/31/23,"$539,000.00 ",Qualified,FM,0.62,Residential,1985,2360,$228.39 ,34.3613947,-83.8679068
11,12037 000017,6806 SHOAL CREEK RD,7/31/23,"$299,999.00 ",Qualified,FM,1.25,Residential,1920,1088,$275.73 ,34.504298,-83.7882119
12,15044C000177,3877 DEATON RD,7/31/23,"$270,000.00 ",Qualified,FM,0.32,Residential,1996,1165,$231.76 ,34.2027435,-83.8630615
13,10146 000173E,3220 LAKELAND LN,7/31/23,"$220,000.00 ",Qualified,FM,0.5,Residential,1972,880,$250.00 ,34.3634489,-83.8099872
14,10024 000148,5934 BELAFONTE WALK,7/31/23,"$499,779.00 ",Qualified,FM,0.36,Residential,2023,3394,$147.25 ,34.3487489,-83.9517351
15,15041F000159,7305 SHADY TREE CT,7/31/23,"$625,000.00 ",Qualified,FM,0.23,Residential,2020,3296,$189.62 ,34.113737,-83.8674927
16,08080 005007,5462 HULSEY CIR,7/31/23,"$355,000.00 ",Qualified,FM,0.28,Residential,2002,1122,$316.40 ,34.2588582,-83.9406638
17,11158A000090,7344 BARKERS BEND DR,7/31/23,"$280,000.00 ",Qualified,FM,0.35,Residential,1998,1638,$170.94 ,34.4168005,-83.9696514
18,15015D000069,3614 WHISPER WOOD WAY,7/31/23,"$274,400.00 ",Qualified,FM,0.94,Residential,1992,1330,$206.32 ,34.2718104,-83.7244172
19,15036 002008,2943 COLONY CT,7/31/23,"$300,000.00 ",Qualified,FM,0.35,Residential,1978,1560,$192.31 ,34.2194333,-83.8291755
20,15028 000152,4214 NORTON LN,7/31/23,"$740,000.00 ",Qualified,FM,0.51,Residential,2018,3743,$197.70 ,34.163482,-83.796422
21,08016 002114,3537 SW BLACK CHERRY PT,7/31/23,"$550,000.00 ",Qualified,FM,0.15,Residential,2013,1874,$293.49 ,34.2872999,-83.888588
22,15029B000074,5013 LITTLE FOX TRL,7/31/23,"$514,900.00 ",Qualified,FM,2.27,Residential,2008,2825,$182.27 ,34.1807432,-83.8041425
23,15039 000839,6026 WHITE SYCAMORE PL,7/31/23,"$425,000.00 ",Qualified,FM,0.16,Residential,2023,2587,$164.28 ,34.1291343,-83.8409263
24,10014 000057,5617 RIVER STONE RD,7/31/23,"$392,000.00 ",Qualified,FM,1,Residential,2007,2156,$181.82 ,34.374281,-83.957012
25,00094 000006I,2125 IMPERIAL DR,7/31/23,"$385,000.00 ",Qualified,FM,0.82,Residential,1975,2076,$185.45 ,34.3452509,-83.8170126
26,15041C000118,7569 GRAND REUNION DR,7/31/23,"$430,000.00 ",Qualified,FM,0.11,Residential,2003,2064,$208.33 ,34.1126639,-83.8624817
27,15047 002056,6845 SCARLET OAK WAY,7/31/23,"$524,900.00 ",Qualified,FM,0.15,Residential,2021,2952,$177.81 ,34.1558486,-83.9131521
28,15048F000001,6104 LIVE OAK DR,7/31/23,"$261,000.00 ",Qualified,FM,0.57,Residential,1999,1542,$169.26 ,34.1318387,-83.9031372
29,01113 005008A,1012 NW PIEDMONT WAY,7/31/23,"$250,000.00 ",Qualified,FM,0.39,Residential,1963,884,$282.81 ,34.3081692,-83.8421853
30,08076 002056,5443 RAINTREE TRCE,7/31/23,"$369,900.00 ",Qualified,FM,0.47,Residential,1980,1181,$313.21 ,34.2303545,-83.9153452
31,15042 000194,5659 PLEASANT WOODS DR,7/28/23,"$570,000.00 ",Qualified,FM,0.83,Residential,2006,3830,$148.83 ,34.1399346,-83.8674098
32,15041 000257,5812 MAPLE BLUFF WAY,7/28/23,"$562,000.00 ",Qualified,FM,0.17,Residential,2020,1691,$332.35 ,34.1085415,-83.8545296
33,15041 000324,5908 DEERBROOK CT,7/28/23,"$467,850.00 ",Qualified,FM,0.12,Residential,2019,1473,$317.62 ,34.109457,-83.855009
34,08075 002161A,5543 FOXGLOVE WAY,7/28/23,"$370,000.00 ",Qualified,FM,0.1,Residential,2019,2096,$176.53 ,34.2198161,-83.9060638
35,15047 002140,6959 WOODTRAIL RUN,7/28/23,"$425,000.00 ",Qualified,FM,0.15,Residential,2021,2253,$188.64 ,34.1557087,-83.9120762
36,15047 000167,7896 KEEPSAKE LN,7/28/23,"$422,500.00 ",Qualified,FM,0.2,Residential,2004,2388,$176.93 ,34.1366767,-83.9033235
37,10030 001001,5308 LAWSON LAKE DR,7/28/23,"$335,000.00 ",Qualified,FM,0.7,Residential,2023,1610,$208.07 ,34.393873,-83.943066
38,01025 002005,671 NW BLUERIDGE AVE,7/28/23,"$370,000.00 ",Qualified,FM,0.19,Residential,1947,1232,$300.32 ,34.3029932,-83.835515
39,10017 000174,7142 BLUEBIRD CV,7/28/23,"$614,411.00 ",Qualified,FM,0.27,Residential,2023,1996,$307.82 ,34.353592,-83.9643229
40,10094A000005,2317 FORD WHITE RD,7/28/23,"$216,000.00 ",Qualified,FM,0.18,Residential,1945,1022,$211.35 ,34.3284089,-83.8891054
41,10080 000044,4014 PONDEROSA LN,7/28/23,"$360,000.00 ",Qualified,FM,0.59,Residential,1999,1841,$195.55 ,34.3756077,-83.8912994
42,15037H000093,4522 WARWICK GLEN PL,7/28/23,"$750,000.00 ",Qualified,FM,0.57,Residential,1999,3929,$190.89 ,34.1993511,-83.8419782
43,08130 000024,6446 FORD RD,7/28/23,"$995,000.00 ",Qualified,FM,1.69,Residential,1959,1591,$625.39 ,34.1998258,-83.9534018
44,12006 000001L,5534 BRITT WHITMIRE RD,7/28/23,"$127,000.00 ",Qualified,FM,0.94,Residential,1981,992,$128.02 ,34.4462196,-83.8264406
45,10099 000126,3929 WALNUT GROVE WAY,7/28/23,"$375,000.00 ",Qualified,FM,0.34,Residential,2004,2257,$166.15 ,34.3745902,-83.8822052
46,08054 003006,4810 STEPHENS RD,7/28/23,"$440,000.00 ",Qualified,FM,0.69,Residential,1969,1584,$277.78 ,34.2417065,-83.9035097
47,10114 000053,3502 THOMPSON BND,7/27/23,"$330,000.00 ",Qualified,FM,0.72,Residential,1977,1581,$208.73 ,34.3647248,-83.862813
48,08169 003084,119 HOLIDAY RD,7/27/23,"$359,900.00 ",Qualified,FM,0.18,Residential,2004,1328,$271.01 ,34.1452155,-83.9699186
49,08041 001064,4457 LAKE FOREST DR,7/27/23,"$357,000.00 ",Qualified,FM,0.67,Residential,1971,1347,$265.03 ,34.2524684,-83.8981292
50,11016 000008E,5022 YOUNG RD,7/27/23,"$160,000.00 ",Qualified,FM,2.44,Residential,1979,1088,$147.06 ,34.4299688,-83.8491034
51,10037 000027,3482 MARINA CREST DR,7/27/23,"$660,000.00 ",Qualified,FM,0.27,Residential,2000,3758,$175.63 ,34.3240064,-83.9418839
52,10067 000053,3619 CAMERON CIR,7/27/23,"$2,468,349.00 ",Qualified,FM,0.55,Residential,2007,3526,$700.04 ,34.302365,-83.9007368
53,15039 000808,5939 GREEN ASH CT,7/27/23,"$443,920.00 ",Qualified,FM,0.17,Residential,2022,2734,$162.37 ,34.1301406,-83.8403223
54,15037F000083,4051 LYMAN WAY,7/26/23,"$437,000.00 ",Qualified,FM,0.84,Residential,1992,1939,$225.37 ,34.204605,-83.8363022
55,08078 000088,5431 MAYFLOWER CT,7/26/23,"$1,750,000.00 ",Qualified,FM,0.71,Residential,2021,3000,$583.33 ,34.2391999,-83.926477
56,08141 006012A,6513 BERMUDA LN,7/26/23,"$1,580,000.00 ",Qualified,FM,0.87,Residential,1978,2824,$559.49 ,34.1843562,-83.9556762
57,10017 000190,7141 BLUEBIRD CV,7/26/23,"$713,110.00 ",Qualified,FM,0.24,Residential,2022,1922,$371.02 ,34.353147,-83.9639557
58,01088 002001,1434 NW LONGVIEW DR,7/26/23,"$200,000.00 ",Qualified,FM,0.57,Residential,1954,1044,$191.57 ,34.3199701,-83.8362194
59,09071 002016,6022 COBB ST,7/26/23,"$310,000.00 ",Qualified,FM,1,Residential,1960,3410,$90.91 ,34.3899427,-83.670227
60,15042C000014,6632 QUINCY DR,7/26/23,"$320,000.00 ",Qualified,FM,0.59,Residential,1992,1444,$221.61 ,34.1444095,-83.8894366
61,15046F000005,5045 OLD ORR RD,7/26/23,"$315,000.00 ",Qualified,FM,0.78,Residential,1994,1306,$241.19 ,34.1639767,-83.9094278
62,08168 000071,6141 HUTCHINS DR,7/26/23,"$435,000.00 ",Qualified,FM,1.77,Residential,1972,1931,$225.27 ,34.1559923,-83.9784566
63,09113A001030,3215 THE TRAIL,7/25/23,"$247,500.00 ",Qualified,FM,0.46,Residential,1973,1176,$210.46 ,34.342967,-83.7885125
64,01084 001044,2679 NE LIMESTONE CREEK DR,7/25/23,"$526,971.00 ",Qualified,FM,0.23,Residential,2022,3884,$135.68 ,34.3257793,-83.8091582
65,15042F000017,5530 MADISON PL,7/25/23,"$775,000.00 ",Qualified,FM,2.1,Residential,1998,1143,$214.98 ,34.1397768,-83.859914
66,15039 000803,5959 GREEN ASH CT,7/25/23,"$419,990.00 ",Qualified,FM,0.16,Residential,2022,2612,$160.79 ,34.1291193,-83.8395497
67,15044G000075,4515 DEER CREEK CT,7/25/23,"$1,000,000.00 ",Qualified,FM,1.03,Residential,2005,5119,$195.35 ,34.1894785,-83.8751739
68,10115 000149,3710 CHEROKEE FRD,7/25/23,"$375,000.00 ",Qualified,FM,0.54,Residential,1977,1898,$197.58 ,34.3750852,-83.8644282
69,10097 000110,3937 FIELDSTONE DR,7/25/23,"$580,000.00 ",Qualified,FM,0.94,Residential,1992,4950,$117.17 ,34.3557748,-83.889002
70,12031 004005,5322 BETHEL RD,7/25/23,"$315,000.00 ",Qualified,FM,0.71,Residential,1977,1358,$231.96 ,34.4493489,-83.808951
71,00109A000004,2321 SPORTSMAN CLUB RD,7/25/23,"$200,000.00 ",Qualified,FM,0.63,Residential,1960,780,$256.41 ,34.3224368,-83.8698945
72,08113 001109,5414 TOWN SQUARE WAY,7/25/23,"$394,000.00 ",Qualified,FM,0.13,Residential,2020,1691,$233.00 ,34.1828247,-83.9220852
73,10030 001002,5312 LAWSON LAKE DR,7/25/23,"$330,000.00 ",Qualified,FM,0.62,Residential,2023,1296,$254.63 ,34.393928,-83.942683
74,15036C000305,3355 ABBEY WAY,7/25/23,"$310,000.00 ",Qualified,FM,0.04,Residential,2021,990,$313.13 ,34.2216181,-83.8548299
75,08024 006150,4494 SW SILVER OAK DR,7/25/23,"$502,868.00 ",Qualified,FM,0.19,Residential,2022,3038,$165.53 ,34.2532969,-83.8672029
76,10082 000091,3911 HIDDEN HOLLOW DR,7/25/23,"$190,000.00 ",Qualified,FM,0.28,Residential,1997,1134,$167.55 ,34.357934,-83.889639
77,10085 000075,2474 VENTURE DR,7/25/23,"$394,000.00 ",Qualified,FM,0.6,Residential,2000,1610,$244.72 ,34.3285887,-83.8953146
78,12019B000004,2720 QUILLIANS DR,7/25/23,"$330,000.00 ",Qualified,FM,1.27,Residential,1986,1776,$185.81 ,34.4439035,-83.8087852
79,15022I000054,3188 THORN BUSH DR,7/24/23,"$275,000.00 ",Qualified,FM,0.61,Residential,2007,1248,$220.35 ,34.2781873,-83.7570332
80,15047G000022,6763 WINDING CANYON RD,7/24/23,"$900,000.00 ",Qualified,FM,1.81,Residential,2022,4106,$219.19 ,34.161899,-83.913532
81,15039 000438,5934 CHIMNEY ROCK DR,7/24/23,"$500,000.00 ",Qualified,FM,0.17,Residential,2007,1852,$269.98 ,34.1177572,-83.8437036
82,15039 000705,5822 UNION GROVE DR,7/24/23,"$419,990.00 ",Qualified,FM,0.23,Residential,2022,2587,$162.35 ,34.1314509,-83.8397824
83,15042 000197,5615 WHITE TAIL RUN,7/24/23,"$529,500.00 ",Qualified,FM,0.59,Residential,2016,3284,$161.24 ,34.1382313,-83.86712
84,08112 024002,5734 MITCHELL ST,7/24/23,"$390,000.00 ",Qualified,FM,0.38,Residential,1915,1889,$206.46 ,34.184296,-83.9281299
85,08012 009074,4210 SW SWAMP CYPRESS TRL,7/24/23,"$374,000.00 ",Qualified,FM,0.14,Residential,2015,2073,$180.41 ,34.2531514,-83.8623989
86,08051 001253,3621 ACORN DR,7/24/23,"$314,000.00 ",Qualified,FM,0.05,Residential,2021,1700,$184.71 ,34.224403,-83.878726
87,10054 000010,4958 RED OAK DR,7/21/23,"$390,000.00 ",Qualified,FM,0.5,Residential,1978,1756,$222.10 ,34.3871964,-83.9106692
88,08023 002037,3623 WINDY HILL DR,7/21/23,"$302,500.00 ",Qualified,FM,0.44,Residential,1973,1385,$218.41 ,34.2642693,-83.8821259
89,15035B009008,13 N AVE,7/21/23,"$250,000.00 ",Qualified,FM,0.25,Residential,1926,960,$260.42 ,34.25624674,-83.83910863
90,08026 000151,2692 SW CREEK MILL LN,7/21/23,"$240,000.00 ",Qualified,FM,0.02,Residential,2005,1512,$158.73 ,34.2434797,-83.8555962
91,08101 001030,5928 RIVER RD,7/21/23,"$594,000.00 ",Qualified,FM,0.57,Residential,1999,2442,$243.24 ,34.2168748,-83.9340869
92,08111 003320,6050 TRUMPET FLOWER AVE,7/21/23,"$425,000.00 ",Qualified,FM,0.14,Residential,2021,1749,$243.00 ,34.1905001,-83.9275507
93,08138 001131,6329 WATER HAVEN WAY,7/21/23,"$315,000.00 ",Qualified,FM,0.8,Residential,1998,2332,$135.08 ,34.1566,-83.9450066
94,15039S000022,6654 AUTUMN RIDGE WAY,7/21/23,"$435,000.00 ",Qualified,FM,0.13,Residential,2013,1244,$349.68 ,34.1354467,-83.8512574
95,15039 000734,6008 HICKORY CREEK CT,7/21/23,"$473,570.00 ",Qualified,FM,0.47,Residential,2022,3007,$157.49 ,34.1298818,-83.8426303
96,15042 000412,6890 LANCASTER XING,7/21/23,"$483,000.00 ",Qualified,FM,0.19,Residential,2019,3493,$138.28 ,34.1370316,-83.8873668
97,10027 000013,5464 COOL SPRINGS RD,7/21/23,"$150,000.00 ",Qualified,FM,2.78,Residential,1920,1044,$143.68 ,34.3703769,-83.9547665
98,11134 000133,5440 FISHERMANS CV,7/21/23,"$1,119,996.00 ",Qualified,FM,1.75,Residential,2022,2794,$400.86 ,34.4091786,-83.9556142
99,15047 000553,7537 BROOKSTONE CIR,7/21/23,"$549,900.00 ",Qualified,FM,0.21,Residential,2008,3094,$177.73 ,34.1415385,-83.9066137
100,12040 000034,6016 CREEKSIDE VIEW LN,7/21/23,"$455,000.00 ",Qualified,FM,1.06,Residential,2019,2794,$162.85 ,34.4751587,-83.7925552
101,01080 001064,1717 NE SAWGRASS CV,7/21/23,"$365,000.00 ",Qualified,FM,0.24,Residential,2007,2132,$171.20 ,34.3251042,-83.8137591
102,08044A000034,3744 OAKWOOD HILLS DR,7/21/23,"$295,000.00 ",Qualified,FM,0.85,Residential,1988,1680,$175.60 ,34.2374358,-83.8803886
103,08117 001016,5723 BRIDGEPORT CT,7/21/23,"$340,000.00 ",Qualified,FM,0.13,Residential,2006,2040,$166.67 ,34.1772937,-83.9230825
104,08132 000043,6236 SOUTH HALL DR,7/21/23,"$198,000.00 ",Qualified,FM,0.54,Residential,1988,0,$0.00 ,34.178209,-83.9459992
105,08169 003137,129 HOLIDAY RD,7/21/23,"$375,000.00 ",Qualified,FM,0.05,Residential,2006,1601,$234.23 ,34.1452042,-83.9730413
106,10102 000024,4221 TALL HICKORY TRL,7/20/23,"$1,240,000.00 ",Qualified,FM,0.6,Residential,1996,2696,$459.94 ,34.3882828,-83.8675341
107,15041 000625,5694 MIRAVISTA WAY,7/20/23,"$775,140.00 ",Qualified,FM,0.2,Residential,2023,2569,$301.73 ,34.1020727,-83.865117
108,10024 000109,5918 BELAFONTE WALK,7/20/23,"$422,840.00 ",Qualified,FM,0.23,Residential,2023,2508,$168.60 ,34.3487489,-83.9517351
109,10102 000015,4257 TALL HICKORY TRL,7/20/23,"$1,800,000.00 ",Qualified,FM,1.1,Residential,1989,4388,$410.21 ,34.3883193,-83.8712817
110,15048B000027,3219 HERITAGE WAY,7/20/23,"$435,000.00 ",Qualified,FM,1.68,Residential,1988,1710,$254.39 ,34.1174018,-83.9019784
111,08065 000265,5132 GOLDEN OAK CV,7/20/23,"$505,000.00 ",Qualified,FM,0.16,Residential,2021,2851,$177.13 ,34.2402307,-83.9112486
112,15047 000751,6917 CREEKSTONE PL,7/20/23,"$432,000.00 ",Qualified,FM,0.12,Residential,2014,2204,$196.01 ,34.1515137,-83.8990812
113,08075 002057,4418 MCBRAYER RD,7/20/23,"$294,000.00 ",Qualified,FM,0.74,Residential,1996,1298,$226.50 ,34.2133326,-83.9085756
114,09052A000031,5341 MOUNTAIN VIEW PKWY,7/19/23,"$290,000.00 ",Qualified,FM,0.65,Residential,2004,1147,$252.83 ,34.4090851,-83.654771
115,15024 000107,3204 ROY PARKS RD,7/19/23,"$130,000.00 ",Qualified,FM,0.93,Residential,1900,0,$0.00 ,34.2336579,-83.7571992
116,08065 000252,5248 NOBLE OAK CV,7/19/23,"$424,000.00 ",Qualified,FM,0.17,Residential,2021,1731,$244.95 ,34.2405068,-83.9107106
117,01125 005013,682 SW AUBURN AVE,7/18/23,"$175,000.00 ",Qualified,FM,0.24,Residential,1950,908,$192.73 ,34.286912,-83.8337748
118,01084 001041,2697 NE LIMESTONE CREEK DR,7/18/23,"$489,750.00 ",Qualified,FM,0.23,Residential,2022,1528,$320.52 ,34.3253304,-83.8088266
119,09124 000237,3763 NE SHADES VALLEY LN,7/18/23,"$315,000.00 ",Qualified,FM,0.05,Residential,2019,1506,$209.16 ,34.3286164,-83.7977584
120,15041D000140,6171 BAYBROOK TRCE,7/18/23,"$619,000.00 ",Qualified,FM,0.3,Residential,2005,4397,$140.78 ,34.1242473,-83.8654635
121,15043D000035,5249 BOWMAN SPRINGS TRL,7/18/23,"$380,000.00 ",Qualified,FM,0.27,Residential,1998,1980,$191.92 ,34.1539458,-83.8774719
122,15037B000100,4491 HIDDEN OAKS DR,7/18/23,"$339,000.00 ",Qualified,FM,0.61,Residential,1993,1700,$199.41 ,34.186128,-83.8492691
123,15048 000100,6355 BLACKJACK RD,7/18/23,"$527,000.00 ",Qualified,FM,1.42,Residential,2007,2413,$218.40 ,34.122417,-83.8965564
124,10102 000041,4221 WILLOW OAK DR,7/18/23,"$307,000.00 ",Qualified,FM,0.62,Residential,1997,3500,$87.71 ,34.3890867,-83.872379
125,08053 004004A,4021 OAKWOOD RD,7/17/23,"$320,000.00 ",Qualified,FM,0.44,Residential,1963,1322,$242.06 ,34.2353358,-83.8919617
126,10052A000042,4858 FOREST BLVD,7/17/23,"$310,000.00 ",Qualified,FM,0.45,Residential,1987,1588,$195.21 ,34.3880754,-83.93055
127,15042 000720,6787 CAMBRIDGE DR,7/17/23,"$522,400.00 ",Qualified,FM,0.21,Residential,2022,2958,$176.61 ,34.1408312,-83.8880084
128,09113A001066,3342 LODGE OVLK,7/17/23,"$250,000.00 ",Qualified,FM,0.33,Residential,1973,1176,$212.59 ,34.3460183,-83.7890516
129,10011D000096,6739 OAKWOOD TRL,7/17/23,"$265,000.00 ",Qualified,FM,0.8,Residential,1970,773,$342.82 ,34.387914,-83.9661786
130,12047 000087,4406 HIGHLAND GATE PKWY,7/17/23,"$410,000.00 ",Qualified,FM,0.35,Residential,2018,2324,$176.42 ,34.4108289,-83.7880565
131,01107 001101,3061 NW STILLWATER DR,7/17/23,"$615,000.00 ",Qualified,FM,0.58,Residential,2001,2842,$216.40 ,34.3564031,-83.8760642
132,01084 004052,1468 NE KENSINGTON PL,7/17/23,"$525,000.00 ",Qualified,FM,0.49,Residential,1990,2980,$176.17 ,34.3258102,-83.8176064
133,08140 000155,6370 GREEN OAK RDG,7/17/23,"$457,000.00 ",Qualified,FM,0.46,Residential,2001,2566,$178.10 ,34.1775354,-83.9556142
134,09079B000124,6373 WOODLAND STATION DR,7/17/23,"$384,900.00 ",Qualified,FM,0.5,Residential,2021,2540,$151.54 ,34.409639,-83.6922079
135,15028A001013,4217 BENEFIELD RD,7/17/23,"$530,000.00 ",Qualified,FM,3.51,Residential,1989,1561,$339.53 ,34.1652879,-83.815175
136,01117 004015,807 NW LAKESHORE DR,7/17/23,"$276,000.00 ",Qualified,FM,0.69,Residential,1986,1742,$158.44 ,34.3000761,-83.8497247
137,01114 001008,1093 NW DIXON DR,7/17/23,"$1,038,538.00 ",Qualified,FM,1.99,Residential,1955,2517,$412.61 ,34.3073856,-83.8472393
138,15026C000016,4379 RUSTIC OAK LN,7/14/23,"$429,900.00 ",Qualified,FM,0.58,Residential,2005,2461,$174.69 ,34.1556461,-83.783744
139,15048 001127,3357 LONG CREEK DR,7/14/23,"$445,000.00 ",Qualified,FM,0.15,Residential,2019,1800,$247.22 ,34.114862,-83.9049169
140,10075 000004A,4367 SARDIS RD,7/14/23,"$400,000.00 ",Qualified,FM,3.06,Residential,1963,1189,$336.42 ,34.3744552,-83.9002401
141,10116 000077,3822 ALEXANDRIA DR,7/14/23,"$535,000.00 ",Qualified,FM,0.59,Residential,1995,3266,$163.81 ,34.3783007,-83.8622332
142,08141 004011,6528 BERMUDA LN,7/14/23,"$310,000.00 ",Qualified,FM,0.31,Residential,1986,1816,$170.70 ,34.1843405,-83.954477
143,08044 004017,4210 OAKWOOD RD,7/14/23,"$152,000.00 ",Qualified,FM,0.03,Residential,2003,1406,$108.11 ,34.2276356,-83.8813837
144,10140 000035,3346 NOTTINGHAM FOREST DR,7/14/23,"$1,075,000.00 ",Qualified,FM,1.38,Residential,2000,2583,$416.18 ,34.3735792,-83.8138834
145,11105 000005A,6035 YELLOW CREEK RD,7/14/23,"$385,000.00 ",Qualified,FM,0.86,Residential,2020,1778,$216.54 ,34.4313187,-83.9297433
146,15041 000488,5253 MORRELL RD,7/14/23,"$242,465.00 ",Qualified,FM,0.07,Residential,2023,2066,$117.36 ,34.101299,-83.862627
147,10072 003050,2818 FRAN MAR DR,7/14/23,"$259,000.00 ",Qualified,FM,0.34,Residential,1970,1329,$194.88 ,34.3426363,-83.9006126
148,10081 000067,4317 OAK CREEK DR,7/14/23,"$335,000.00 ",Qualified,FM,0.48,Residential,1986,1682,$199.17 ,34.3689696,-83.8985017
149,10047A000025,3490 MONTVALE DR,7/14/23,"$1,000,000.00 ",Qualified,FM,0.42,Residential,1976,2018,$495.54 ,34.3362985,-83.9322254
150,12022A000088,4742 THUNDER RIVER DR,7/14/23,"$615,000.00 ",Qualified,FM,0.5,Residential,2007,2454,$250.61 ,34.4172536,-83.816909
151,10079 001074,4115 LORI LN,7/14/23,"$320,000.00 ",Qualified,FM,0.36,Residential,2004,1350,$237.04 ,34.3805575,-83.8892296
152,08016 002056,3416 SW BLUE SPRUCE CT,7/14/23,"$625,000.00 ",Qualified,FM,0.17,Residential,2014,2812,$222.26 ,34.2851917,-83.8879256
153,15028 000256,4115 GENTLE BREEZE WAY,7/14/23,"$973,780.00 ",Qualified,FM,1.42,Residential,2022,3812,$255.45 ,34.1601271,-83.7953123
154,10068 000039,3311 DAVIS BRIDGE RD,7/14/23,"$330,000.00 ",Qualified,FM,0.77,Residential,1920,880,$375.00 ,34.309291,-83.9096347
155,15039 000837,6018 WHITE SYCAMORE PL,7/14/23,"$476,480.00 ",Qualified,FM,0.17,Residential,2022,3007,$158.46 ,34.1291343,-83.8409263
156,15028J000005,1024 REGENCY PARK DR,7/14/23,"$400,000.00 ",Qualified,FM,0.86,Residential,2002,1878,$212.99 ,34.1654477,-83.8098214
157,08169 003072,119 HOLIDAY RD,7/14/23,"$376,000.00 ",Qualified,FM,0.18,Residential,2004,1566,$240.10 ,34.1459303,-83.9712404
158,15046D000031,4652 LAUREL BROOK DR,7/14/23,"$341,900.00 ",Qualified,FM,1.34,Residential,1992,1320,$259.02 ,34.1809482,-83.8937831
159,08031A004044,4684 SW HIDDEN CREEK DR,7/14/23,"$354,000.00 ",Qualified,FM,0.14,Residential,2016,1546,$228.98 ,34.2484941,-83.8816583
160,10011 000094,6145 CARDINAL DR,7/14/23,"$90,000.00 ",Qualified,FM,0.34,Residential,2022,3152,$28.55 ,34.3899858,-83.9727313
161,11134 000131,5432 FISHERMANS CV,7/14/23,"$850,670.00 ",Qualified,FM,1.46,Residential,2022,2794,$304.46 ,34.4082946,-83.9552006
162,01104 002033,311 NE HUDSON CHASE CT,7/13/23,"$550,000.00 ",Qualified,FM,0.24,Residential,2022,3272,$168.09 ,34.3492279,-83.848769
163,10058A000046,4503 SUMMER GATE CT,7/13/23,"$490,000.00 ",Qualified,FM,0.59,Residential,2006,2094,$234.00 ,34.3577906,-83.918706
164,1.50E+10,4764 GATEWAY LN,7/13/23,"$742,400.00 ",Qualified,FM,6.1,Residential,1984,2881,$257.69 ,34.182519,-83.8640762
165,01095 001019K,2162 NE PINE TREE CIR,7/13/23,"$375,000.00 ",Qualified,FM,0.86,Residential,1975,1912,$196.13 ,34.3408516,-83.8235813
166,08012 009094,4341 SW BOX ELDER PATH,7/13/23,"$386,000.00 ",Qualified,FM,0.21,Residential,2014,2172,$177.72 ,34.2511915,-83.8647181
167,08015B000007,2869 SW FLORENCE DR,7/13/23,"$205,000.00 ",Qualified,FM,0.03,Residential,1997,984,$208.33 ,34.2752936,-83.8735702
168,08024 005286,4340 SW PLEASANT GARDEN DR,7/13/23,"$395,000.00 ",Qualified,FM,0.15,Residential,2018,1786,$221.16 ,34.2539037,-83.871349
169,01042 002003,639 NW CRESTVIEW TER,7/12/23,"$275,000.00 ",Qualified,FM,0.52,Residential,1958,1653,$166.36 ,34.3055963,-83.8348521
170,00133C000033,1198 VILLA CLARA WAY,7/12/23,"$277,000.00 ",Qualified,FM,0.47,Residential,2017,2204,$125.68 ,34.266856,-83.8445069
171,15042 000305,5831 MULBERRY HOLW,7/12/23,"$555,000.00 ",Qualified,FM,0.59,Residential,2006,3071,$180.72 ,34.1357921,-83.869439
172,01084 001050,2619 NE LIMESTONE CREEK DR,7/12/23,"$501,000.00 ",Qualified,FM,0.2,Residential,2022,1482,$338.06 ,34.327128,-83.809884
173,10069 001015,3115 FORK RD,7/12/23,"$306,000.00 ",Qualified,FM,0.6,Residential,1987,1058,$289.22 ,34.3187524,-83.9025992
174,15047Y000020,6763 TRAILSIDE DR,7/12/23,"$799,000.00 ",Qualified,FM,0.52,Residential,2017,3718,$214.90 ,34.1561489,-83.9078552
175,10115 000105,3748 CORINTH DR,7/11/23,"$449,000.00 ",Qualified,FM,0.62,Residential,1978,2346,$191.39 ,34.3736526,-83.8616948
176,08151 002025,5202 CLUB WILDWOOD DR,7/11/23,"$680,000.00 ",Qualified,FM,0.4,Residential,2013,3318,$204.94 ,34.1518551,-83.9493284
177,15041F000046,7238 GRAND REUNION DR,7/11/23,"$532,500.00 ",Qualified,FM,0.21,Residential,2003,2576,$206.72 ,34.1182892,-83.8693147
178,08131 002018,5981 WARPATH RD,7/11/23,"$500,000.00 ",Qualified,FM,1.26,Residential,1968,1248,$400.64 ,34.1893746,-83.9459578
179,15041 000593,5011 ADLER CT,7/11/23,"$586,285.00 ",Qualified,FM,0.16,Residential,2023,1864,$314.53 ,34.1015417,-83.8625658
180,15039 000141,6044 SUMMERALL CIR,7/10/23,"$480,000.00 ",Qualified,FM,0.18,Residential,2016,2576,$186.34 ,34.1230488,-83.8328633
181,15037B000033L,4531 STRICKLAND BLVD,7/10/23,"$260,000.00 ",Qualified,FM,0.61,Residential,1980,1293,$201.08 ,34.1867012,-83.8442981
182,15047 000673,6859 LAKE STERLING BLVD,7/10/23,"$810,000.00 ",Qualified,FM,0.32,Residential,2018,3322,$243.83 ,34.1496376,-83.8979223
183,12025 000042,4028 SUTTON RD,7/7/23,"$199,000.00 ",Qualified,FM,1.21,Residential,1957,1136,$175.18 ,34.4020301,-83.8069613
184,15036B000085,3890 POPLAR SPRINGS RD,7/7/23,"$130,000.00 ",Qualified,FM,1.25,Residential,1985,1384,$93.93 ,34.2084609,-83.8338162
185,15014F000033,3301 BLUFFTON DR,7/7/23,"$352,000.00 ",Qualified,FM,0.82,Residential,2007,1760,$200.00 ,34.2246745,-83.7466299
186,10097 000094,4022 FIELDSTONE DR,7/7/23,"$350,000.00 ",Qualified,FM,0.65,Residential,1988,1871,$187.07 ,34.3559924,-83.88687
187,11084 000028,5029 ELROD PL,7/7/23,"$310,000.00 ",Qualified,FM,1.02,Residential,1986,1625,$190.77 ,34.4041598,-83.9027234
188,01077 001071,1338 NE BURNAM WOOD DR,7/7/23,"$480,000.00 ",Qualified,FM,0.62,Residential,2020,3618,$132.67 ,34.321289,-83.8212191
189,08077 002035,5610 SALLEE AVE,7/7/23,"$115,000.00 ",Qualified,FM,0.34,Residential,1950,996,$115.46 ,34.2295377,-83.9198139
190,10069 008013,3020 SPRINGDALE PARK DR,7/7/23,"$220,000.00 ",Qualified,FM,0.74,Residential,1964,1251,$175.86 ,34.3208885,-83.9090553
191,01073 002040,476 NW HOLLY PL,7/7/23,"$293,500.00 ",Qualified,FM,0.38,Residential,1959,1340,$219.03 ,34.3162343,-83.8384152
192,12047 000073,4518 HIGHLAND GATE PKWY,7/7/23,"$398,900.00 ",Qualified,FM,0.38,Residential,2021,2413,$165.31 ,34.4116965,-83.7919747
193,08099A000017,5724 NEWBERRY POINT DR,7/7/23,"$480,000.00 ",Qualified,FM,0.59,Residential,1999,3517,$136.48 ,34.2063726,-83.9212207
194,10014 000028,5719 ROCKY RIDGE RUN,7/7/23,"$369,900.00 ",Qualified,FM,1.08,Residential,2016,1276,$289.89 ,34.376456,-83.957058
195,01069 002023,317 NW VININGS WALK,7/7/23,"$665,000.00 ",Qualified,FM,0.23,Residential,2006,2997,$221.89 ,34.3111801,-83.8320139
196,10131C000036,4821 HIGHLAND CIR,7/7/23,"$750,000.00 ",Qualified,FM,3.13,Residential,1999,2682,$279.64 ,34.391893,-83.8238092
197,15041H000159,3130 PERIMETER CIR,7/7/23,"$600,000.00 ",Qualified,FM,0.34,Residential,2012,3232,$185.64 ,34.1047785,-83.8850485
198,10139 000094A,3006 SCENIC DR,7/7/23,"$187,500.00 ",Qualified,FM,1.16,Residential,1959,1100,$170.45 ,34.3620141,-83.8132202
199,15037K000022,4082 CRABAPPLE DR,7/7/23,"$359,000.00 ",Qualified,FM,0.79,Residential,1994,1449,$247.76 ,34.2027429,-83.8293827
200,15024 000054,3173 WALLACE RD,7/6/23,"$50,000.00 ",Qualified,FM,2,Residential,1946,825,$60.61 ,34.2326972,-83.7723394
201,01039A000023,605 NE CANDLER ST,7/6/23,"$175,000.00 ",Qualified,FM,0.05,Residential,1983,792,$220.96 ,34.3084684,-83.824492
202,01074 001017V,1191 NE RIVERSIDE TER,7/6/23,"$269,900.00 ",Qualified,FM,0.03,Residential,2002,1667,$161.91 ,34.3179514,-83.8285229
203,15047 000302,7920 BENCHMARK DR,7/6/23,"$538,000.00 ",Qualified,FM,0.27,Residential,2004,2362,$227.77 ,34.139016,-83.8994123
204,08065 000342,5150 WATCHMANS CV,7/6/23,"$510,000.00 ",Qualified,FM,0.16,Residential,2021,2705,$188.54 ,34.242818,-83.910224
205,08113 001170,5560 GARENS WAY,7/6/23,"$370,000.00 ",Qualified,FM,0.06,Residential,2020,2021,$183.08 ,34.1813871,-83.9226036
206,08024 006145,4514 SW SILVER OAK DR,7/6/23,"$408,010.00 ",Qualified,FM,0.2,Residential,2023,1786,$228.45 ,34.2532969,-83.8672029
207,15039Q000031,6502 GARDENSIDE CIR,7/6/23,"$415,000.00 ",Qualified,FM,0.16,Residential,2012,1533,$270.71 ,34.1340796,-83.8516302
208,15037H000038,4421 OXBURGH PARK,7/6/23,"$440,000.00 ",Qualified,FM,0.6,Residential,1993,2443,$180.11 ,34.1992317,-83.8473636
209,15041F000031,7342 FIREFLY CT,7/6/23,"$500,000.00 ",Qualified,FM,0.6,Residential,2003,1930,$259.07 ,34.1147682,-83.8664574
210,08098A000108,4905 VIREO DR,7/6/23,"$311,500.00 ",Qualified,FM,0.02,Residential,2003,1692,$184.10 ,34.1892874,-83.9160889
211,09119 000018,173 CLARKS BRIDGE RD,7/6/23,"$690,000.00 ",Qualified,FM,2.9,Residential,2022,2451,$281.52 ,34.3397868,-83.8007847
212,15039F000141,5924 PARK BEND AVE,7/6/23,"$540,000.00 ",Qualified,FM,0.24,Residential,2017,3042,$177.51 ,34.1278361,-83.8298799
213,15041D000265,6407 SYCAMORE DR,7/6/23,"$650,000.00 ",Qualified,FM,0.37,Residential,2016,3767,$172.55 ,34.1294736,-83.8699566
214,10145 000046,3621 GRIFFIN DR,7/5/23,"$334,900.00 ",Qualified,FM,0.98,Residential,1983,1602,$209.05 ,34.3685286,-83.8011164
215,08138 001174,6360 MARBLE HEAD DR,7/5/23,"$395,000.00 ",Qualified,FM,0.66,Residential,1999,1614,$244.73 ,34.1576086,-83.9364861
216,15036C000063,3703 BOLDING RD,7/5/23,"$310,000.00 ",Qualified,FM,0.42,Residential,2003,1042,$297.50 ,34.218263,-83.8575946
217,01070 003061,1001 NW HOLLY DR,7/5/23,"$290,000.00 ",Qualified,FM,0.19,Residential,1997,1275,$227.45 ,34.3130578,-83.8332569
218,10007 000056,6113 FOXMOOR CT,7/5/23,"$549,900.00 ",Qualified,FM,0.59,Residential,1999,2546,$215.99 ,34.3569228,-83.9692793
219,1.50E+32,3493 NAVIGATOR LN,7/5/23,"$380,000.00 ",Qualified,FM,6.3,Residential,2014,1852,$205.18 ,34.179281,-83.76634
220,09071 007004,6009 CHATTAHOOCHEE ST,7/5/23,"$265,000.00 ",Qualified,FM,0.54,Residential,1989,1194,$221.94 ,34.389268,-83.666912
221,15044L000050,3747 CHESAPEAKE TRACE LN,7/5/23,"$198,000.00 ",Qualified,FM,0.26,Residential,2000,1264,$156.65 ,34.2068075,-83.8655877
222,01117 005001,821 NW LAKEMONT DR,7/3/23,"$320,000.00 ",Qualified,FM,0.66,Residential,1953,1660,$192.77 ,34.2996384,-83.8513402
223,08033 000037,3276 PARKER RD,7/3/23,"$245,000.00 ",Qualified,FM,0.42,Residential,1978,1344,$182.29 ,34.2698138,-83.8895194
224,08131 002010,5951 WARPATH RD,7/3/23,"$265,000.00 ",Qualified,FM,0.44,Residential,1980,1463,$181.13 ,34.1918173,-83.9454615
225,10029 000084,5416 LATHAM MANOR DR,7/3/23,"$335,000.00 ",Qualified,FM,0.81,Residential,2012,1327,$252.45 ,34.3921105,-83.9470745
226,15044H000099,4311 FALCON CREST DR,7/3/23,"$349,000.00 ",Qualified,FM,0.89,Residential,1993,1194,$292.29 ,34.1958737,-83.8788797
227,15029C000076,4502 HOLLY FOREST DR,6/30/23,"$505,000.00 ",Qualified,FM,1.05,Residential,1992,3254,$155.19 ,34.1930677,-83.8082463
228,01027 001024,800 SW WEST AVE,6/30/23,"$235,000.00 ",Qualified,FM,0.37,Residential,1960,1002,$234.53 ,34.2960513,-83.83596928
229,15044 000258,4518 MEADOWLAND WAY,6/30/23,"$790,000.00 ",Qualified,FM,0.81,Residential,2006,3885,$203.35 ,34.182155,-83.879405
230,01111 001041,745 NW HONEYSUCKLE RD,6/30/23,"$590,000.00 ",Qualified,FM,1.13,Residential,1964,1996,$295.59 ,34.3210848,-83.8498076
231,15041F000001,7366 GRAND REUNION DR,6/30/23,"$585,000.00 ",Qualified,FM,0.3,Residential,2013,2990,$195.65 ,34.1141784,-83.8676583
232,15039H000013,6411 HICKORY SPRINGS CIR,6/30/23,"$606,000.00 ",Qualified,FM,0.21,Residential,2007,2474,$244.95 ,34.1211476,-83.852482
233,08034 000437,3765 SW CRESSWIND PKWY,6/30/23,"$680,000.00 ",Qualified,FM,0.17,Residential,2019,2901,$234.40 ,34.2739785,-83.8915407
234,10114A000047,3505 NANCY PL,6/30/23,"$418,000.00 ",Qualified,FM,0.67,Residential,1996,2715,$153.96 ,34.3653105,-83.8572633
235,15015H000013,3434 ONE HORSE LN,6/30/23,"$250,000.00 ",Qualified,FM,0.71,Residential,2003,1302,$192.01 ,34.2570362,-83.7229645
236,15037 000259,4438 PARK ROYAL DR,6/30/23,"$1,300,000.00 ",Qualified,FM,0.63,Residential,2016,3509,$370.48 ,34.203094,-83.8393888
237,01075A000046,1235 NE RIVERSIDE DR,6/30/23,"$200,000.00 ",Qualified,FM,0.03,Residential,1969,1280,$156.25 ,34.3199273,-83.8271084
238,10076 000087,4203 PRICE RD,6/30/23,"$190,000.00 ",Qualified,FM,0.58,Residential,1997,2636,$72.08 ,34.378943,-83.9018956
239,1.50E+86,2507 REPRESENTATIVE WAY,6/30/23,"$550,000.00 ",Qualified,FM,0.34,Residential,2003,3066,$179.39 ,34.1095107,-83.8835167
240,01083 001080,1526 NE WOODLAND CT,6/30/23,"$360,000.00 ",Qualified,FM,0.19,Residential,1988,1491,$241.45 ,34.320721,-83.813386
241,08031 005110,3626 CANYON SPRINGS DR,6/30/23,"$325,000.00 ",Qualified,FM,0.07,Residential,2021,1726,$188.30 ,34.254974,-83.8815708
242,08119 000032,6013 CATAMARAN CT,6/30/23,"$1,700,000.00 ",Qualified,FM,0.6,Residential,1993,3892,$436.79 ,34.1888623,-83.9412984
243,08130 000006,5985 NACHOOCHEE TRL,6/30/23,"$858,000.00 ",Qualified,FM,0.43,Residential,1958,1470,$583.67 ,34.1917958,-83.9537649
244,11155 000075F,7533 CHESTATEE LN,6/30/23,"$350,000.00 ",Qualified,FM,1.62,Residential,1988,1794,$195.09 ,34.4130902,-83.9723386
245,09071 014004,5862 MCLEOD ST,6/30/23,"$280,000.00 ",Qualified,FM,0.38,Residential,2003,1452,$192.84 ,34.387377,-83.6711201
246,10024 000191,6007 MORNING STAR LN,6/30/23,"$456,365.00 ",Qualified,FM,0.28,Residential,2023,2696,$169.27 ,34.3486951,-83.9505072
247,10027 000037,5620 GRANT FORD RD,6/30/23,"$430,000.00 ",Qualified,FM,0.76,Residential,2006,1468,$292.92 ,34.3764364,-83.9550146
248,00133C000020,1146 VILLA CLARA WAY,6/30/23,"$345,000.00 ",Qualified,FM,0.18,Residential,2017,2020,$170.79 ,34.2688403,-83.8458309
249,01075A000044,1235 NE RIVERSIDE DR,6/30/23,"$242,000.00 ",Qualified,6,0.02,Residential,1969,986,$245.44 ,34.3199273,-83.8271084
250,15036D000024,3465 GILLELAND CIR,6/30/23,"$235,000.00 ",Qualified,FM,1.02,Residential,1973,1526,$154.00 ,34.2205183,-83.8447538
251,15047M000016,7150 LAKE EDGE DR,6/30/23,"$750,000.00 ",Qualified,FM,0.26,Residential,2020,3534,$212.22 ,34.151612,-83.9028061
252,08042A000108,4635 CRAWFORD OAKS DR,6/30/23,"$245,000.00 ",Qualified,FM,0.09,Residential,2001,1176,$208.33 ,34.2415698,-83.8915342
253,08041A000060,3730 OLD FLOWERY BRANCH RD,6/30/23,"$175,000.00 ",Qualified,6,0.11,Residential,1981,1024,$170.90 ,34.2531746,-83.8879877
254,10101A000063,4791 HIAWATHA DR,6/30/23,"$365,000.00 ",Qualified,FM,0.33,Residential,1993,2282,$159.95 ,34.3936178,-83.8896022
255,08158 002018,3825 CARTER RD,6/30/23,"$479,000.00 ",Qualified,FM,0.51,Residential,1940,1738,$275.60 ,34.1541542,-83.9586534
256,15047 001155,7143 BOATHOUSE WAY,6/29/23,"$610,000.00 ",Qualified,FM,0.28,Residential,2019,2867,$212.77 ,34.1457179,-83.897467
257,15028I000020,5662 HARMONY BND,6/29/23,"$459,900.00 ",Qualified,FM,1.49,Residential,1996,1961,$234.52 ,34.1447496,-83.8002872
258,09103A002080,3626 LAKEVIEW DR,6/29/23,"$300,000.00 ",Qualified,FM,0.28,Residential,2000,1472,$203.80 ,34.36841843,-83.75676284
259,15030F000022,6056 CANE CROSSING DR,6/29/23,"$298,500.00 ",Qualified,FM,0.2,Residential,1996,1258,$237.28 ,34.2116717,-83.7910833
260,12032 000051,5604 DIVINE LN,6/29/23,"$354,000.00 ",Qualified,FM,1.46,Residential,2015,1896,$186.71 ,34.4621641,-83.8038524
261,08023A000023,3728 SW HAMILTON CT,6/29/23,"$445,000.00 ",Qualified,FM,0.72,Residential,1987,2403,$185.19 ,34.2677927,-83.8802046
262,08065 000287,5127 WATCHMANS CV,6/29/23,"$490,000.00 ",Qualified,FM,0.16,Residential,2021,2194,$223.34 ,34.241957,-83.9102968
263,10081 000094,4144 GREENWOOD DR,6/29/23,"$325,000.00 ",Qualified,FM,0.5,Residential,1996,1216,$267.27 ,34.3604053,-83.8896022
264,08141 007027,6453 PARADISE POINT RD,6/29/23,"$790,000.00 ",Qualified,FM,1.18,Residential,1975,1128,$700.35 ,34.1825661,-83.9571235
265,10060 000152,3111 HIDDEN PASS,6/29/23,"$150,000.00 ",Qualified,FM,0.51,Residential,1986,1372,$109.33 ,34.3362085,-83.9155935
266,12041 000077,5829 SWEETBOTTOM LN,6/29/23,"$490,000.00 ",Qualified,FM,2.43,Residential,1991,2098,$233.56 ,34.4630707,-83.7970536
267,15047 000785,6932 BIG SKY DR,6/29/23,"$410,000.00 ",Qualified,FM,0.19,Residential,2015,2312,$177.34 ,34.1497157,-83.8994951
268,12108 000032,8845 SHALLOW CREEK TRL,6/29/23,"$330,000.00 ",Qualified,FM,1.29,Residential,2018,1867,$176.75 ,34.5032846,-83.7398145
269,01083 001144,925 NE BRENAU POINT DR,6/29/23,"$370,000.00 ",Qualified,FM,0.24,Residential,2003,2226,$166.22 ,34.3205304,-83.8103819
270,1.50E+73,4798 EAGLE WATCH DR,6/29/23,"$345,000.00 ",Qualified,FM,0.65,Residential,1996,1708,$201.99 ,34.1715039,-83.8884017
271,08111 003053,5614 CRICKET MELODY LN,6/28/23,"$422,000.00 ",Qualified,FM,0.18,Residential,2020,2908,$145.12 ,34.1971669,-83.9284609
272,10105 004041,3638 LEDAN RD,6/28/23,"$185,000.00 ",Qualified,FM,0.76,Residential,1962,1206,$153.40 ,34.3644797,-83.872586
273,12055 000043,5726 REDSTONE LN,6/28/23,"$582,700.00 ",Qualified,FM,4.08,Residential,2002,1595,$365.33 ,34.4559689,-83.7854856
274,15036C000290,3419 ABBEY WAY,6/28/23,"$335,000.00 ",Qualified,FM,0.05,Residential,2018,1686,$198.70 ,34.2211618,-83.853683
275,08056 003021,4742 BEN HILL DR,6/28/23,"$800,000.00 ",Qualified,FM,0.49,Residential,1960,3067,$260.84 ,34.2584347,-83.9172486
276,15014 000024,3828 CATO RD,6/28/23,"$275,000.00 ",Qualified,FM,0.47,Residential,1959,1696,$162.15 ,34.2436749,-83.7128357
277,15048F000007,6128 LIVE OAK DR,6/28/23,"$350,000.00 ",Qualified,FM,0.57,Residential,1999,1346,$260.03 ,34.1304534,-83.9005298
278,08099 000066,5202 BLAKE,6/28/23,"$401,000.00 ",Qualified,FM,0.1,Residential,2020,2180,$183.94 ,34.1981715,-83.9190278
279,10007 000067,6133 WESTCHESTER PL,6/28/23,"$475,000.00 ",Qualified,FM,0.59,Residential,2005,2760,$172.10 ,34.3571024,-83.968101
280,11130 000016,6437 YELLOW CREEK RD,6/28/23,"$389,900.00 ",Qualified,FM,1.54,Residential,1999,1885,$206.84 ,34.4239213,-83.9486047
281,15032E001007,1411 FLOYD CIR,6/28/23,"$90,000.00 ",Qualified,FM,0.8,Residential,1945,1700,$52.94 ,34.2874765,-83.7941032
282,10072 003068,2900 FRAN MAR DR,6/28/23,"$250,000.00 ",Qualified,FM,0.35,Residential,1976,2128,$117.48 ,34.3471976,-83.9011092
283,15039 000826,6025 WHITE SYCAMORE PL,6/27/23,"$438,000.00 ",Qualified,FM,0.21,Residential,2023,2791,$156.93 ,34.1291343,-83.8409263
284,08015 005011,4 CHERRY CIR,6/27/23,"$225,000.00 ",Qualified,FM,0.32,Residential,1957,1344,$167.41 ,34.2764921,-83.870845
285,10044 000098,3475 HICKORY LAKE DR,6/27/23,"$667,000.00 ",Qualified,FM,0.9,Residential,2006,3345,$199.40 ,34.314061,-83.93118
286,01040 001006,401 NW RIDGEWOOD AVE,6/27/23,"$525,000.00 ",Qualified,FM,0.27,Residential,1935,1215,$432.10 ,34.3064991,-83.83046
287,15022G000004,2571 SE LENOX DR,6/27/23,"$250,000.00 ",Qualified,FM,0.26,Residential,1998,1190,$210.08 ,34.2869979,-83.7815462
288,10024 000186,5931 BELAFONTE WALK,6/26/23,"$550,555.00 ",Qualified,FM,0.21,Residential,2023,3192,$172.48 ,34.3487489,-83.9517351
289,12040 000028,6040 CREEKSIDE VIEW LN,6/26/23,"$449,900.00 ",Qualified,FM,1.14,Residential,2019,2359,$190.72 ,34.4763433,-83.793799
290,15039 000809,5935 GREEN ASH CT,6/26/23,"$453,480.00 ",Qualified,FM,0.17,Residential,2022,2612,$173.61 ,34.1301406,-83.8403223
291,15007C000031,4954 MCKINLEY DR,6/26/23,"$310,000.00 ",Qualified,FM,0.37,Residential,1998,1217,$254.72 ,34.3588115,-83.6953555
292,10007 000083,5947 MANCHESTER LN,6/26/23,"$460,000.00 ",Qualified,FM,0.59,Residential,2022,2175,$211.49 ,34.35832,-83.965379
293,08112 009040,4894 CLARKSTONE DR,6/26/23,"$432,000.00 ",Qualified,FM,0.27,Residential,2019,1368,$315.79 ,34.1886608,-83.9183158
294,15041F000076,7212 IVEY LEAF LN,6/26/23,"$470,000.00 ",Qualified,FM,0.2,Residential,2004,1782,$263.75 ,34.1185945,-83.8702257
295,11036 000010A,4435 HAROLD WHELCHEL RD,6/26/23,"$514,900.00 ",Qualified,FM,0.49,Residential,2022,2672,$192.70 ,34.401401,-83.86614
296,15028C000022,3920 KILGORE FALLS DR,6/26/23,"$334,000.00 ",Qualified,FM,1.84,Residential,1986,1892,$176.53 ,34.1712825,-83.8062152
297,15048 001103,3359 FALL BRANCH LN,6/26/23,"$547,000.00 ",Qualified,FM,0.23,Residential,2021,3244,$168.62 ,34.1127969,-83.904921
298,08024 005197,4443 SW BIG ROCK RIDGE TRL,6/26/23,"$482,000.00 ",Qualified,FM,0.19,Residential,2019,3382,$142.52 ,34.2538215,-83.8740767
299,15046 000039D,5247 HOG MOUNTAIN RD,6/23/23,"$303,000.00 ",Qualified,FM,1.55,Residential,2017,2016,$0.00 ,34.1618795,-83.9251638
300,01104 002021,290 NE COCHRAN DR,6/23/23,"$387,000.00 ",Qualified,FM,0.4,Residential,1967,1371,$282.28 ,34.349231,-83.8493105
301,15046G000170,6383 FLAT ROCK DR,6/23/23,"$379,000.00 ",Qualified,FM,0.6,Residential,1994,2081,$182.12 ,34.1635918,-83.8929552
302,10082 000002A,3305 LADD DR,6/23/23,"$305,000.00 ",Qualified,FM,0.62,Residential,1986,1568,$194.52 ,34.3533423,-83.8969703
303,08137A000146,6309 WILMINGTON WAY,6/23/23,"$389,000.00 ",Qualified,FM,0.69,Residential,1999,1724,$225.64 ,34.1459399,-83.9369411
305,09066 016001A,6261 GROVE ST,6/23/23,"$267,000.00 ",Qualified,FM,0.17,Residential,1970,1177,$226.85 ,34.39503012,-83.65899098
306,15015B000110,2938 BRIDLE CT,6/23/23,"$330,000.00 ",Qualified,FM,0.88,Residential,2000,1372,$240.52 ,34.2696658,-83.744213
307,15041 000314,5968 VENTURA PL,6/23/23,"$672,500.00 ",Qualified,FM,0.2,Residential,2019,3487,$192.86 ,34.1085822,-83.8518787
308,08008 000016F,10 CAPRI TER,6/23/23,"$300,000.00 ",Qualified,FM,0.39,Residential,1988,1806,$166.11 ,34.2698955,-83.8479021
309,08099A000073,5617 NEWBERRY POINT DR,6/23/23,"$428,000.00 ",Qualified,FM,0.59,Residential,1998,2319,$184.56 ,34.2045593,-83.920869
310,08151 002106,5403 SUMMER SPRUCE PL,6/23/23,"$736,400.00 ",Qualified,FM,0.29,Residential,2023,3828,$192.37 ,34.1542264,-83.9488731
311,08113 001130,5465 TRILLIUM WAY,6/23/23,"$469,000.00 ",Qualified,FM,0.13,Residential,2020,2657,$176.51 ,34.1816987,-83.9228757
312,15041 000538,5651 VILLA CREST DR,6/23/23,"$461,730.00 ",Qualified,FM,0.13,Residential,2023,1636,$282.23 ,34.104223,-83.8611449
313,08140 000107,6434 SOUTH CREEK CT,6/23/23,"$540,000.00 ",Qualified,FM,0.28,Residential,1998,1998,$270.27 ,34.1799212,-83.9543943
314,11158A000216,7453 DOGWOOD TRL,6/23/23,"$290,000.00 ",Qualified,FM,0.28,Residential,2006,1506,$192.56 ,34.4158358,-83.9746122
315,15048G000009,3823 DARNELL CREEK CT,6/23/23,"$602,000.00 ",Qualified,FM,0.57,Residential,1999,3916,$153.73 ,34.1210244,-83.9296606
316,08031 004017,4610 SW BAGWELL DR,6/23/23,"$429,000.00 ",Qualified,FM,0.2,Residential,2016,2511,$170.85 ,34.2564171,-83.8779895
317,15048F000042,6334 CLEARBROOK DR,6/22/23,"$263,800.00 ",Qualified,FM,0.57,Residential,1999,1385,$190.47 ,34.1309741,-83.89488
318,10008 000109,5951 WELLINGTON AVE,6/22/23,"$515,000.00 ",Qualified,FM,0.77,Residential,2005,2820,$182.62 ,34.363612,-83.9669434
319,08026 000097,2745 SW VALLEY GREEN DR,6/22/23,"$278,000.00 ",Qualified,FM,0.02,Residential,2017,1592,$174.62 ,34.2425732,-83.8546537
320,08041A000029,3925 MOUNTAIN VIEW RD,6/22/23,"$190,000.00 ",Qualified,FM,0.11,Residential,1981,1024,$185.55 ,34.2538547,-83.8892293
321,15047 002211,6909 RIVER ROCK DR,6/22/23,"$571,446.00 ",Qualified,FM,0.14,Residential,2022,1790,$319.24 ,34.1483073,-83.9095105
322,15035A009001,4 K AVE,6/22/23,"$150,000.00 ",Qualified,FM,0.31,Residential,1926,1466,$102.32 ,34.2516016,-83.8392438
323,08130 000012,5984 NACHOOCHEE TRL,6/22/23,"$1,200,000.00 ",Qualified,FM,0.42,Residential,2007,1696,$707.55 ,34.1925359,-83.9538981
324,01087 001021,1383 NE RIVERSIDE DR,6/22/23,"$190,000.00 ",Qualified,FM,0.56,Residential,1950,1420,$133.80 ,34.3227285,-83.8283467
325,10029 000054,5411 LATHAM MANOR DR,6/22/23,"$319,000.00 ",Qualified,FM,0.89,Residential,2019,1380,$231.16 ,34.391407,-83.9478029
326,15032E001007B,1419 FLOYD CIR,6/22/23,"$120,000.00 ",Qualified,FM,0.52,Residential,1940,808,$73.17 ,34.287759,-83.79452
327,15043D000011,5144 ARTESIAN SPRING DR,6/22/23,"$450,000.00 ",Qualified,FM,0.33,Residential,1995,1816,$247.80 ,34.1585474,-83.8781551
328,08056 003025,4724 BEN HILL DR,6/22/23,"$970,000.00 ",Qualified,FM,0.52,Residential,1978,2508,$386.76 ,34.259271,-83.9162348
329,10152 000033,3754 NEWPORT DR,6/22/23,"$326,627.00 ",Qualified,FM,0.48,Residential,1987,2386,$136.89 ,34.3672081,-83.7989192
330,15039Q000032,6507 CHESTNUT WALK,6/21/23,"$425,000.00 ",Qualified,FM,0.16,Residential,2013,1533,$277.23 ,34.1337702,-83.8515059
331,08113 001012,5806 BRIDGEPORT CT,6/21/23,"$350,000.00 ",Qualified,FM,0.14,Residential,2005,1837,$190.53 ,34.1756658,-83.9216758
332,15048G000012,3853 DARNELL CREEK CT,6/21/23,"$533,000.00 ",Qualified,FM,0.59,Residential,2000,2568,$207.55 ,34.1219749,-83.9286646
333,01086 001024,1389 NE BURNS DR,6/21/23,"$455,000.00 ",Qualified,FM,1.01,Residential,1963,3392,$134.14 ,34.3255797,-83.8244722
334,10068 000005A,3279 DAVIS BRIDGE RD,6/21/23,"$260,000.00 ",Qualified,FM,2.36,Residential,1960,1972,$131.85 ,34.3104025,-83.9085173
335,1.50E+72,4687 EUCALYPTUS WAY,6/21/23,"$265,000.00 ",Qualified,FM,0.59,Residential,1999,1339,$197.91 ,34.176032,-83.8967633
336,08024 006211,4481 SW MILL OAK WAY,6/21/23,"$534,509.00 ",Qualified,FM,0.18,Residential,2022,3616,$147.82 ,34.2543887,-83.8680229
337,15047 000908,6823 SWALLOW TAIL LN,6/21/23,"$410,000.00 ",Qualified,FM,0.14,Residential,2013,1660,$246.99 ,34.152122,-83.898688
338,1.50E+08,3429 BELMONT HEIGHTS DR,6/21/23,"$345,000.00 ",Qualified,FM,1.05,Residential,2002,1308,$263.76 ,34.1848092,-83.7639194
339,15044L000080,3733 WINDSONG CHSE,6/21/23,"$274,400.00 ",Qualified,FM,0.22,Residential,2001,1276,$215.05 ,34.2064319,-83.8632686
340,08148 005007,6427 WINTER HARBOR DR,6/21/23,"$910,000.00 ",Qualified,FM,1.01,Residential,2019,2893,$314.55 ,34.173617,-83.969647
341,15039 000735,6012 HICKORY CREEK CT,6/21/23,"$480,000.00 ",Qualified,FM,0.45,Residential,2023,3308,$145.10 ,34.1298742,-83.842735
342,02024 000002C,6950 KEITH RD,6/21/23,"$209,000.00 ",Qualified,FM,4.51,Residential,1976,1530,$136.60 ,34.5103261,-83.7831634
343,08089 002055,5606 SPRUCE LN,6/21/23,"$456,250.00 ",Qualified,FM,0.92,Residential,2005,2079,$219.46 ,34.2208928,-83.9208483
344,01067 004004,817 NE MEMORIAL DR,6/21/23,"$552,500.00 ",Qualified,FM,0.43,Residential,1945,3373,$163.80 ,34.3121458,-83.8237263
345,08102 001017,6090 JIM CROW RD,6/20/23,"$750,000.00 ",Qualified,FM,0.74,Residential,1989,2486,$301.69 ,34.222693,-83.9397538
346,15039K000088,6115 LONGLEAF DR,6/20/23,"$353,000.00 ",Qualified,FM,0.04,Residential,2007,1218,$289.82 ,34.1257279,-83.8448366
347,10081 000103,4130 GLENWOOD DR,6/20/23,"$300,000.00 ",Qualified,FM,0.51,Residential,1996,1100,$272.73 ,34.3622528,-83.8911338
348,15041F000120,7518 GRAND REUNION DR,6/20/23,"$795,000.00 ",Qualified,FM,0.5,Residential,2015,3610,$220.22 ,34.1123114,-83.8640969
349,15039S000026,6638 AUTUMN RIDGE WAY,6/20/23,"$419,040.00 ",Qualified,FM,0.13,Residential,2014,1413,$296.56 ,34.1353891,-83.8518373
350,15039K000123,6250 IVY STONE WAY,6/20/23,"$415,100.00 ",Qualified,FM,0.12,Residential,2009,1533,$270.78 ,34.12751,-83.8458309
351,10086 000065,3411 ROCK RIDGE DR,6/20/23,"$227,500.00 ",Qualified,FM,0.47,Residential,1990,1168,$194.78 ,34.3160911,-83.8960183
352,01117 008014,768 NW SUNSET BLVD,6/20/23,"$344,000.00 ",Qualified,FM,0.49,Residential,2019,1839,$187.06 ,34.298276,-83.8517544
353,08129 000034,6563 CRESTWOOD PENINSULA,6/20/23,"$1,250,000.00 ",Qualified,FM,0.81,Residential,1998,1292,$967.49 ,34.2029757,-83.958488
354,1.50E+226,2124 INDEPENDENCE LN,6/20/23,"$650,000.00 ",Qualified,FM,0.35,Residential,2014,3436,$189.17 ,34.1142899,-83.8838065
355,10010 000044,6121 DEEPWATER CV,6/19/23,"$1,202,000.00 ",Qualified,FM,0.69,Residential,2022,3102,$387.49 ,34.3828645,-83.9750256
356,09066 016007,6307 8TH ST,6/16/23,"$275,000.00 ",Qualified,FM,0.98,Residential,1950,872,$89.66 ,34.3942253,-83.6587185
357,01097A000004A,2498 NW HIDDEN COVE CT,6/16/23,"$185,000.00 ",Qualified,FM,0.01,Residential,1983,1296,$142.75 ,34.3354818,-83.8491034
358,10151 000101,3450 CLARKS BRIDGE XING,6/16/23,"$402,000.00 ",Qualified,FM,0.8,Residential,1988,2235,$179.87 ,34.3655845,-83.7903162
359,10011B000064,5733 RIDGEWATER DR,6/16/23,"$645,000.00 ",Qualified,FM,0.61,Residential,2004,3417,$188.76 ,34.3971973,-83.9696514
360,10118 000023,4538 CROOKED CREEK RD,6/16/23,"$1,615,000.00 ",Qualified,FM,4.05,Residential,2000,6903,$233.96 ,34.3890852,-83.8482335
361,15041 000602,5815 MIRAVISTA WAY,6/16/23,"$631,255.00 ",Qualified,FM,0.22,Residential,2023,2346,$269.08 ,34.1016001,-83.8649842
362,08042A000125,4829 TIMBER HILLS DR,6/16/23,"$255,000.00 ",Qualified,FM,0.07,Residential,2002,1304,$195.55 ,34.2418107,-83.8907423
363,08023A000056,3783 SW PRINCETON CT,6/16/23,"$430,000.00 ",Qualified,FM,0.57,Residential,1998,1853,$232.06 ,34.2620556,-83.8787554
364,08099A000038,5624 NEWBERRY POINT DR,6/16/23,"$415,000.00 ",Qualified,FM,0.59,Residential,1999,2032,$204.23 ,34.2046588,-83.918945
365,01037 001024B,1223 NE PARK ST,6/16/23,"$250,000.00 ",Qualified,FM,0.62,Residential,1950,1339,$186.71 ,34.3095952,-83.817282
366,15041D000377,6638 STAG LEAP LN,6/16/23,"$615,000.00 ",Qualified,FM,1.83,Residential,2017,2933,$209.68 ,34.128904,-83.875724
367,15043K000017,5176 GLEN FORREST DR,6/16/23,"$750,000.00 ",Qualified,FM,1.23,Residential,2006,2909,$257.82 ,34.1652888,-83.8861662
368,08137A000139,6337 WILMINGTON WAY,6/16/23,"$407,000.00 ",Qualified,FM,0.66,Residential,2000,2004,$203.09 ,34.1472681,-83.938722
369,07355 002043,6732 HOLIDAY PT,6/16/23,"$851,780.00 ",Qualified,FM,0.34,Residential,2001,2579,$330.28 ,34.1662946,-84.000526
370,09120 000059,3141 GULLS WHARF DR,6/16/23,"$500,000.00 ",Qualified,FM,1.64,Residential,2014,2936,$170.30 ,34.3385438,-83.7941514
371,15047 002209,6901 RIVER ROCK DR,6/16/23,"$550,310.00 ",Qualified,FM,0.14,Residential,2022,1656,$332.31 ,34.14853,-83.9096347
372,15007A000151,5360 ROCKY MEADOW TRL,6/16/23,"$299,200.00 ",Qualified,FM,0.74,Residential,2006,1546,$193.53 ,34.3680917,-83.6868836
373,15044 000391,4720 GRANDVIEW PKWY,6/16/23,"$900,000.00 ",Qualified,FM,3.15,Residential,2007,3356,$268.18 ,34.174062,-83.8802253
374,15039R000003,6612 FAWN MEADOW LN,6/16/23,"$575,000.00 ",Qualified,FM,0.18,Residential,2014,2959,$194.32 ,34.1337189,-83.8496094
375,12144 000002C,7889 BELTON BRIDGE RD,6/16/23,"$280,500.00 ",Qualified,FM,1.93,Residential,1945,1584,$177.08 ,34.4430088,-83.6921009
376,15041D000247,6308 HICKORY BRANCH DR,6/16/23,"$544,000.00 ",Qualified,FM,0.26,Residential,2007,2937,$185.22 ,34.1240907,-83.8675341
377,08151 002109,5317 SUMMER OAK LN,6/16/23,"$725,900.00 ",Qualified,FM,0.25,Residential,2022,3784,$191.83 ,34.1544557,-83.9480304
378,00094 000055,2106 RIVERWOOD DR,6/16/23,"$525,000.00 ",Qualified,FM,0.99,Residential,2003,2179,$240.94 ,34.3412363,-83.8157899
379,09113 000009,2841 NAVAJO CIR,6/16/23,"$325,000.00 ",Qualified,FM,0.69,Residential,1996,1073,$302.89 ,34.3420666,-83.7835366
380,15039 000368,6342 STONEBRIDGE CV,6/16/23,"$562,600.00 ",Qualified,FM,0.28,Residential,2014,3213,$175.10 ,34.1268018,-83.8373173
381,15030 000020J,2451 WEBB GIRTH RD,6/16/23,"$250,000.00 ",Qualified,FM,1.47,Residential,1977,960,$260.42 ,34.2171547,-83.8071271
382,12047 000096,4331 HIGHLAND GATE PKWY,6/16/23,"$379,000.00 ",Qualified,FM,0.2,Residential,2016,2164,$175.14 ,34.406736,-83.7899223
383,08031 005077,3861 PROSPECT POINT DR,6/15/23,"$333,000.00 ",Qualified,FM,0.08,Residential,2020,1573,$211.70 ,34.2532727,-83.8804116
384,12067 000004,8795 LULA RD,6/15/23,"$62,161.00 ",Qualified,FM,1.35,Residential,1964,660,$94.18 ,34.4477741,-83.7736666
385,1.50E+80,4851 COUNTRYSIDE DR,6/15/23,"$350,000.00 ",Qualified,FM,0.67,Residential,1993,1674,$209.08 ,34.184434,-83.8387881
386,12027 001005,4438 WHITMIRE CIR,6/15/23,"$274,000.00 ",Qualified,FM,0.49,Residential,1970,1407,$194.74 ,34.4149503,-83.80721
387,10087A000043,3392 WOLF DR,6/15/23,"$415,000.00 ",Qualified,FM,1.11,Residential,2022,1599,$259.54 ,34.3115424,-83.9016773
388,08042B000154,4764 SW AUTUMN ROSE TRL,6/15/23,"$280,000.00 ",Qualified,FM,0.03,Residential,2006,1568,$178.57 ,34.2495892,-83.8932863
389,09119 000028,156 CLARKS BRIDGE RD,6/15/23,"$420,000.00 ",Qualified,FM,1.01,Residential,1947,1314,$319.63 ,34.3385423,-83.8009505
390,08042A000544,4733 MEDLOCK LN,6/15/23,"$318,990.00 ",Qualified,FM,0.06,Residential,2022,1641,$194.39 ,34.243018,-83.892252
391,15039B000038,5464 WOODRUN CT,6/15/23,"$620,000.00 ",Qualified,FM,1,Residential,2002,2422,$255.99 ,34.1379459,-83.8384774
392,15015B000070,3057 SADDLE CREEK DR,6/15/23,"$281,000.00 ",Qualified,FM,0.58,Residential,1996,1172,$239.76 ,34.271839,-83.7435905
393,15039 000168,6057 SUMMERALL CIR,6/15/23,"$425,000.00 ",Qualified,FM,0.15,Residential,2016,2561,$165.95 ,34.12243,-83.8326147
394,01114 001095,1311 NW LAKESHORE CIR,6/15/23,"$290,000.00 ",Qualified,FM,0.4,Residential,1970,1618,$179.23 ,34.3071498,-83.8533077
395,10013A000034,6278 AUTUMN HILL DR,6/15/23,"$990,000.00 ",Qualified,FM,1.04,Residential,1999,1987,$498.24 ,34.381673,-83.9762657
396,10024 000106,6013 CALEDONIA CT,6/15/23,"$489,990.00 ",Qualified,FM,0.29,Residential,2022,3014,$162.57 ,34.3501398,-83.9513135
397,08031 004050,4503 SW HIDDEN CREEK DR,6/15/23,"$399,900.00 ",Qualified,FM,0.16,Residential,2016,1856,$215.46 ,34.2542416,-83.8774287
398,01104 002006,172 NE THOMPSON PL,6/15/23,"$715,000.00 ",Qualified,FM,0.62,Residential,1967,2572,$277.99 ,34.3498002,-83.8520444
399,08081 003003,5460 DOGWOOD LN,6/15/23,"$1,175,000.00 ",Qualified,FM,0.62,Residential,1994,2746,$427.90 ,34.2635957,-83.9437658
400,08112 023010,5603 PINE ST,6/15/23,"$436,800.00 ",Qualified,FM,0.06,Residential,2022,2139,$204.21 ,34.3815358,-83.6668509
401,01071 002011,560 NW STILLWOOD DR,6/14/23,"$480,000.00 ",Qualified,FM,0.46,Residential,1956,1368,$350.88 ,34.3103583,-83.8375866
402,08148A001008,6500 GAINES FERRY RD,6/14/23,"$235,000.00 ",Qualified,FM,0.15,Residential,1973,1380,$170.29 ,34.1763421,-83.9711769
403,10114 000094,3636 MITCHELL LAKE DR,6/14/23,"$490,000.00 ",Qualified,FM,0.52,Residential,2022,2041,$240.08 ,34.363066,-83.8596759
404,08152 000037,5434 OAK CREST LN,6/14/23,"$810,000.00 ",Qualified,FM,0.56,Residential,2014,3498,$231.56 ,34.1490931,-83.9508379
405,08056 003076,4415 SHELLIE LN,6/14/23,"$1,050,000.00 ",Qualified,FM,0.54,Residential,2021,2150,$488.37 ,34.261409,-83.9127377
406,11084 000020,5028 BIRD RD,6/14/23,"$299,000.00 ",Qualified,FM,0.53,Residential,1989,1645,$181.76 ,34.4034588,-83.9033856
407,11134 000031,5570 CARLTON DR,6/14/23,"$1,100,000.00 ",Qualified,FM,1.16,Residential,1960,1440,$763.89 ,34.4082332,-83.9648969
408,15037F000064,4028 ASHFORD WAY,6/14/23,"$388,000.00 ",Qualified,FM,0.6,Residential,1996,2274,$170.62 ,34.2030916,-83.8341684
409,01105 000024,2843 NE VILLAGE CT,6/13/23,"$429,900.00 ",Qualified,FM,0.46,Residential,1984,2175,$197.66 ,34.351552,-83.8542397
410,15039 000212,5762 BERKSHIRE TRCE,6/12/23,"$450,000.00 ",Qualified,FM,0.22,Residential,2007,3204,$140.45 ,34.12408335,-83.83086067
411,08024 005391,4329 SW BIRCH MEADOW TRL,6/12/23,"$448,000.00 ",Qualified,FM,0.22,Residential,2020,2314,$193.60 ,34.24895,-83.8700601
412,08031 005072,3841 PROSPECT POINT DR,6/12/23,"$310,000.00 ",Qualified,FM,0.07,Residential,2021,1519,$204.08 ,34.2537052,-83.8804116
413,15039 000828,6017 WHITE SYCAMORE PL,6/12/23,"$446,000.00 ",Qualified,FM,0.21,Residential,2022,2734,$163.13 ,34.1291164,-83.8409799
414,10061 000033,2820 DAWSONVILLE HWY,6/12/23,"$200,000.00 ",Qualified,FM,3.49,Residential,1935,840,$238.10 ,34.3315028,-83.9122003
415,15044 000215,4744 FALLING BROOK DR,6/12/23,"$995,000.00 ",Qualified,FM,0.81,Residential,2022,4445,$223.85 ,34.184713,-83.871988
416,10049 002021,3589 SEQUOIA RD,6/12/23,"$265,000.00 ",Qualified,FM,0.75,Residential,2023,1568,$0.00 ,34.355499,-83.921986
417,15044 003002,3793 CHADWICK DR,6/12/23,"$270,000.00 ",Qualified,FM,0.56,Residential,1970,1289,$209.46 ,34.2124963,-83.8781344
418,10086 000032,3271 SHULER RD,6/9/23,"$345,000.00 ",Qualified,FM,0.51,Residential,2006,1357,$254.24 ,34.3190733,-83.8994951
419,10142 000037,3990 DARRYL LN,6/9/23,"$415,000.00 ",Qualified,FM,0.26,Residential,1985,2979,$139.31 ,34.3922197,-83.8187325
420,15039G000190,6392 ROCKPOINT LN,6/9/23,"$420,000.00 ",Qualified,FM,0.15,Residential,2007,1388,$302.59 ,34.1153919,-83.8477364
421,10099 000033,3909 MERCY CT,6/9/23,"$351,000.00 ",Qualified,FM,0.3,Residential,2001,1634,$214.81 ,34.3758428,-83.8774098
422,15039 000447,5986 CHIMNEY ROCK DR,6/9/23,"$477,000.00 ",Qualified,FM,0.19,Residential,2007,1852,$257.56 ,34.1167843,-83.8427677
423,15041 000619,5764 MIRAVISTA WAY,6/9/23,"$799,615.00 ",Qualified,FM,0.29,Residential,2023,2612,$306.13 ,34.1020724,-83.8651167
424,01042 001026,530 NW RIDGEWOOD AVE,6/9/23,"$412,000.00 ",Qualified,FM,0.41,Residential,1955,1120,$177.28 ,34.3060352,-83.8324075
425,15032E005028,1733 CHESTIA RD,6/9/23,"$270,000.00 ",Qualified,FM,1.24,Residential,2023,1363,$99.05 ,34.2832426,-83.7947407
426,10099 000021,3912 PETES DR,6/9/23,"$320,000.00 ",Qualified,FM,1.15,Residential,2022,1318,$242.79 ,34.376934,-83.885796
427,10081 000045,4435 OAK CREEK DR,6/9/23,"$240,000.00 ",Qualified,FM,0.6,Residential,1987,1656,$144.93 ,34.3679131,-83.8894366
428,15012C000039,4761 TURNING LEAF DR,6/9/23,"$290,000.00 ",Qualified,FM,0.89,Residential,2002,1094,$265.08 ,34.2324662,-83.7008783
429,15039K000081,6141 LONGLEAF DR,6/9/23,"$355,000.00 ",Qualified,FM,0.05,Residential,2007,1408,$252.13 ,34.1264825,-83.8443395
430,01075A000024,1235 NE RIVERSIDE DR,6/9/23,"$235,000.00 ",Qualified,FM,0.02,Residential,1969,986,$238.34 ,34.3199273,-83.8271084
431,09099 000015,4095 CAGLE RD,6/9/23,"$336,000.00 ",Qualified,FM,1.49,Residential,2000,1058,$317.58 ,34.3747655,-83.7361211
432,15041 000542,5635 VILLA CREST DR,6/9/23,"$462,500.00 ",Qualified,FM,0.13,Residential,2021,1636,$282.70 ,34.103992,-83.860572
433,08016 002136,3550 SW BLUE CYPRESS CV,6/9/23,"$520,000.00 ",Qualified,FM,0.16,Residential,2014,2098,$247.86 ,34.2868903,-83.889478
434,10146 000040,3331 BARRY LN,6/9/23,"$346,900.00 ",Qualified,FM,0.45,Residential,1964,2035,$170.47 ,34.3635509,-83.8047436
435,15043I000010,5088 OAK FARM WAY,6/9/23,"$565,000.00 ",Qualified,FM,1,Residential,2000,2529,$223.41 ,34.1671843,-83.8686108
436,15022J000010,3020 SE CEDAR GLEN RUN,6/9/23,"$319,500.00 ",Qualified,FM,0.29,Residential,2006,1946,$164.18 ,34.2814067,-83.7650808
437,08137A000009,6072 DEVONSHIRE DR,6/9/23,"$290,000.00 ",Qualified,FM,0.58,Residential,1997,2252,$128.77 ,34.1519503,-83.9288746
438,08040 003012,4536 SEQUOIA DR,6/9/23,"$389,000.00 ",Qualified,FM,0.81,Residential,1999,1728,$225.12 ,34.2618449,-83.9005712
439,12047 000021,4319 HIGHLAND GATE PKWY,6/9/23,"$369,000.00 ",Qualified,FM,0.24,Residential,2017,1798,$205.23 ,34.4062432,-83.7904199
440,11033 000066,6169 WHITE WAY,6/9/23,"$540,000.00 ",Qualified,FM,1.87,Residential,2018,2508,$215.31 ,34.430074,-83.865617
441,12047 000081,4430 HIGHLAND GATE PKWY,6/9/23,"$499,000.00 ",Qualified,FM,0.45,Residential,2008,3127,$159.58 ,34.4123621,-83.7880772
442,08134A000138,6328 POLAR CIR,6/8/23,"$392,900.00 ",Qualified,FM,0.33,Residential,2001,1626,$241.64 ,34.1668704,-83.9302811
443,15041 000313A,5942 ROLLINGWOOD WAY,6/8/23,"$450,000.00 ",Qualified,FM,0.14,Residential,2020,1596,$281.95 ,34.109708,-83.855988
444,01045 004003,1020 NW RAINEY ST,6/8/23,"$78,000.00 ",Qualified,FM,0.14,Residential,1935,685,$113.87 ,34.298301,-83.8401967
445,08098A000077,4835 ZEPHYR COVE PL,6/8/23,"$300,000.00 ",Qualified,FM,0.02,Residential,2004,1740,$172.41 ,34.1890069,-83.9164839
446,08042B000113,4858 SW TANGERINE CIR,6/8/23,"$280,000.00 ",Qualified,FM,0.03,Residential,2005,1404,$199.43 ,34.2476722,-83.8962447
447,08138 001051,6123 PORTSMOUTH DR,6/8/23,"$421,000.00 ",Qualified,FM,0.59,Residential,1997,2037,$206.68 ,34.1579083,-83.9390506
448,15044C000130,3902 DEATON RD,6/8/23,"$310,190.00 ",Qualified,FM,0.24,Residential,1996,1140,$272.10 ,34.2031313,-83.8647595
449,10044 000097,3469 HICKORY LAKE DR,6/8/23,"$640,000.00 ",Qualified,FM,0.81,Residential,2006,3029,$211.29 ,34.314347,-83.931028
450,15016A000024,3319 GILLSVILLE HWY,6/8/23,"$250,000.00 ",Qualified,FM,0.66,Residential,1988,1428,$175.07 ,34.276228,-83.726958
451,15039 000817,5950 GREEN ASH CT,6/8/23,"$425,000.00 ",Qualified,FM,0.17,Residential,2022,2587,$164.28 ,34.1302874,-83.8401252
452,00133C000058,1312 CARDENA CT,6/7/23,"$300,000.00 ",Qualified,FM,0.32,Residential,2018,2500,$120.00 ,34.2696169,-83.842089
453,08099A000083,5659 NEWBERRY POINT DR,6/7/23,"$435,000.00 ",Qualified,FM,0.61,Residential,1999,2435,$178.64 ,34.2056935,-83.9179934
454,10158 000106D,3340 CLARKS BRIDGE RD,6/7/23,"$188,000.00 ",Qualified,FM,1.09,Residential,1975,1476,$127.37 ,34.3605783,-83.7882637
455,08032 000016,3633 WHITING RD,6/7/23,"$279,000.00 ",Qualified,FM,0.25,Residential,1961,950,$293.68 ,34.2589976,-83.8790039
456,15041D000343,6515 RED HAWK WAY,6/7/23,"$575,000.00 ",Qualified,FM,0.25,Residential,2017,2890,$198.96 ,34.1310514,-83.8725032
457,08056 003004,4657 BEN HILL DR,6/7/23,"$825,000.00 ",Qualified,FM,0.69,Residential,1950,1474,$559.70 ,34.257593,-83.914228
458,10072 003087,2735 FRAN MAR DR,6/7/23,"$280,000.00 ",Qualified,FM,0.35,Residential,2007,1510,$185.43 ,34.3434305,-83.9000745
459,08148A009001,6500 GAINES FERRY RD,6/6/23,"$227,000.00 ",Qualified,FM,0.15,Residential,1973,1960,$115.82 ,34.1763421,-83.9711769
460,15047 002282,6947 SCENIC OVERLOOK TRCE,6/6/23,"$630,670.00 ",Qualified,FM,0.17,Residential,2022,2336,$269.98 ,34.1480736,-83.9105801
461,08075 002184A,5576 FOXGLOVE WAY,6/6/23,"$335,000.00 ",Qualified,FM,0.1,Residential,2020,1460,$229.45 ,34.2205519,-83.9051982
462,15041 000623,5714 MIRAVISTA WAY,6/6/23,"$865,585.00 ",Qualified,FM,0.2,Residential,2023,3454,$250.60 ,34.1020727,-83.865117
463,09079A000046,6242 SOUTHERN MAGNOLIA LN,6/6/23,"$300,000.00 ",Qualified,FM,0.77,Residential,2001,1536,$195.31 ,34.4031803,-83.6941928
464,08042A000109,4633 CRAWFORD OAKS DR,6/6/23,"$183,000.00 ",Qualified,FM,0.07,Residential,2001,1176,$155.61 ,34.2416211,-83.8915877
465,15041 000490,5242 MORRELL RD,6/6/23,"$584,940.00 ",Qualified,FM,0.16,Residential,2023,1864,$313.81 ,34.1017889,-83.863002
466,10035 000014,3752 LATHEM CREEK DR,6/5/23,"$860,000.00 ",Qualified,FM,1.1,Residential,1987,2440,$352.46 ,34.3475009,-83.9433729
467,15039F000109,5750 RIVERMOORE DR,6/5/23,"$605,000.00 ",Qualified,FM,0.16,Residential,2017,3668,$164.94 ,34.1261955,-83.8273937
468,10058A000035,4406 RIDGE GATE DR,6/5/23,"$580,000.00 ",Qualified,FM,1.31,Residential,2022,2560,$226.56 ,34.3571389,-83.917984
469,15047 000485,7423 FIRESIDE LN,6/5/23,"$489,500.00 ",Qualified,FM,0.27,Residential,2005,2526,$193.78 ,34.1404238,-83.9024751
470,07332 001091,2555 ENCHANTRESS WAY,6/5/23,"$427,000.00 ",Qualified,FM,0.89,Residential,1994,2173,$196.50 ,34.1485646,-84.005443
471,12047 000105,4367 HIGHLAND GATE PKWY,6/5/23,"$398,100.00 ",Qualified,FM,0.29,Residential,2017,2428,$163.96 ,34.4082561,-83.7885651
472,15024B000069,3854 CHASE DR,6/5/23,"$316,000.00 ",Qualified,FM,0.85,Residential,2006,1308,$241.59 ,34.2220254,-83.7666156
473,01117 004022,671 NW LAKESHORE DR,6/5/23,"$326,000.00 ",Qualified,FM,0.48,Residential,1959,1908,$170.86 ,34.2978976,-83.8480885
474,10145 000104,3438 BIG VIEW RD,6/5/23,"$805,000.00 ",Qualified,FM,0.16,Residential,2019,3179,$253.22 ,34.37502,-83.8098996
475,15006C000041,5459 MORGAN MANOR CT,6/5/23,"$295,000.00 ",Qualified,FM,0.75,Residential,2001,1263,$233.57 ,34.3736648,-83.6735503
476,08089A002054B,5529 OUR RD,6/5/23,"$375,000.00 ",Qualified,FM,0.29,Residential,2005,1591,$235.70 ,34.2274112,-83.9214276
477,15006D000076,6739 VICTORIA LN,6/2/23,"$212,000.00 ",Qualified,FM,1.02,Residential,2002,1456,$0.00 ,34.3779936,-83.6729272
478,15029 000141,5015 PONDEROSA FARM RD,6/2/23,"$385,000.00 ",Qualified,FM,1.47,Residential,1997,2675,$143.93 ,34.184925,-83.8270207
479,08089 001020,5116 WOFFORD MILL RD,6/2/23,"$1,165,000.00 ",Qualified,FM,1.37,Residential,2005,2983,$390.55 ,34.2246861,-83.9266819
480,01097 003026,2406 NW TERRACE VW,6/2/23,"$354,900.00 ",Qualified,FM,0.03,Residential,2022,1970,$180.15 ,34.3363521,-83.8473537
481,10063 000061,3473 MCKENZIE DR,6/2/23,"$655,000.00 ",Qualified,FM,0.27,Residential,1973,960,$682.29 ,34.3116056,-83.9188209
482,15038C000031,5156 STONERIDGE DR,6/2/23,"$112,000.00 ",Qualified,FM,0.23,Residential,1900,0,$0.00 ,34.1612692,-83.8412324
483,08081 003081,5451 PINE FOREST CIR,6/2/23,"$1,250,000.00 ",Qualified,FM,0.49,Residential,2003,3074,$406.64 ,34.268723,-83.9446964
484,08161A000023,6459 MILLSTONE COVE DR,6/2/23,"$469,000.00 ",Qualified,FM,1.66,Residential,2005,2608,$179.83 ,34.1712156,-83.9692793
485,01083 001050,670 NE ROBINHOOD TRL,6/2/23,"$425,200.00 ",Qualified,FM,0.46,Residential,1969,1716,$247.79 ,34.3161535,-83.8093655
486,01097 003025,2408 NW TERRACE VW,6/2/23,"$354,900.00 ",Qualified,FM,0.03,Residential,2022,1970,$180.15 ,34.3363521,-83.8473537
487,09065 000081,6451 NARRAMORE WAY,6/2/23,"$300,000.00 ",Qualified,FM,0.6,Residential,2002,1646,$182.26 ,34.4006047,-83.6627072
488,15037J000002,5207 WOODGREEN TRL,6/2/23,"$339,000.00 ",Qualified,FM,0.61,Residential,1991,1390,$243.88 ,34.1748252,-83.8336091
489,10086 000136,3485 ROCK RIDGE DR,6/2/23,"$205,500.00 ",Qualified,FM,0.47,Residential,1999,1038,$197.98 ,34.3149521,-83.8928683
490,12058 000004B,460 KING ST,6/2/23,"$220,000.00 ",Qualified,FM,0.83,Residential,1955,984,$223.58 ,34.4778448,-83.7792031
491,08054 004221,4918 HILLSTONE DR,6/2/23,"$327,295.00 ",Qualified,FM,0.11,Residential,2022,1940,$168.71 ,34.2448147,-83.895602
492,15043H000084,5013 LIMERICK LN,6/2/23,"$365,000.00 ",Qualified,FM,0.25,Residential,2001,1279,$285.38 ,34.1722419,-83.8849657
493,11158A000107,8043 BEACHWOOD DR,6/2/23,"$401,000.00 ",Qualified,FM,1.33,Residential,1972,1345,$298.14 ,34.4156039,-83.9813087
494,15046G000077,6238 WOOD SPRING CT,6/2/23,"$415,000.00 ",Qualified,FM,0.58,Residential,1993,1799,$230.68 ,34.1629091,-83.8984361
495,08042A000547,4745 MEDLOCK LN,6/2/23,"$314,990.00 ",Qualified,FM,0.06,Residential,2022,1641,$191.95 ,34.243091,-83.892255
496,10038 000041,3351 DAWSONVILLE HWY,6/2/23,"$1,590,000.00 ",Qualified,FM,2.46,Residential,1994,3199,$497.03 ,34.3197921,-83.9401261
497,15041D000261,6423 SYCAMORE DR,6/2/23,"$565,000.00 ",Qualified,FM,0.22,Residential,2014,2232,$253.14 ,34.1300511,-83.8706812
498,15047 002293,6986 SCENIC OVERLOOK TRCE,6/2/23,"$700,317.00 ",Qualified,FM,0.34,Residential,2023,2575,$271.97 ,34.1464209,-83.909921
499,01111 001054J,659 NW HARBOR CV,6/2/23,"$460,000.00 ",Qualified,FM,0.44,Residential,1977,2497,$184.22 ,34.3213635,-83.8476121
500,15047Y000017,6747 TRAILSIDE DR,6/1/23,"$805,000.00 ",Qualified,FM,0.3,Residential,2017,3548,$226.89 ,34.1557529,-83.9086001
501,01039A000036,605 NE CANDLER ST,6/1/23,"$235,000.00 ",Qualified,FM,0.05,Residential,1983,1548,$151.81 ,34.3084684,-83.824492
502,08042A000545,4737 MEDLOCK LN,6/1/23,"$312,490.00 ",Qualified,FM,0.06,Residential,2022,1664,$187.79 ,34.243091,-83.892255
503,01117 008020,662 NW SUNSET BLVD,6/1/23,"$315,000.00 ",Qualified,FM,0.72,Residential,1962,1597,$197.24 ,34.2965401,-83.8503254
504,15038C000006,5057 STONERIDGE DR,6/1/23,"$135,000.00 ",Qualified,FM,0.3,Residential,1996,0,$0.00 ,34.1644113,-83.8425996
505,08082 001003,5426 PINE FOREST CIR,6/1/23,"$305,000.00 ",Qualified,FM,0.35,Residential,1976,1352,$225.59 ,34.2702517,-83.9428145
506,08054 001075,5045 MERLIN DR,6/1/23,"$262,000.00 ",Qualified,FM,0.46,Residential,1976,936,$279.91 ,34.2407201,-83.8993295
507,15019B000032,4038 COUNTRY LN,6/1/23,"$187,500.00 ",Qualified,FM,0.67,Residential,1998,1303,$143.90 ,34.3505272,-83.7224249
508,01067 004015,904 NE LONGSTREET CIR,6/1/23,"$539,000.00 ",Qualified,FM,0.37,Residential,1948,1540,$350.00 ,34.3134882,-83.824638
509,08078 000044,5445 MALLARD PT,6/1/23,"$435,000.00 ",Qualified,FM,0.61,Residential,1973,2437,$178.50 ,34.2410383,-83.9205587
510,15048C000053,3348 WINDGATE DR,5/31/23,"$360,000.00 ",Qualified,FM,0.64,Residential,1994,1652,$217.92 ,34.1103914,-83.8986259
511,10062 000024,3355 SPRINGDALE FORREST CIR,5/31/23,"$437,500.00 ",Qualified,FM,3.16,Residential,1974,1790,$244.41 ,34.3170701,-83.9183244
512,10024 000177,5967 BELAFONTE WALK,5/31/23,"$500,000.00 ",Qualified,FM,0.31,Residential,2023,2780,$179.86 ,34.3487489,-83.9517351
513,15024B000040,3748 AMBER DAWN WAY,5/31/23,"$325,000.00 ",Qualified,FM,1.54,Residential,2004,1308,$248.47 ,34.2171416,-83.7632972
514,12062A000020,6633 WINDVANE PT,5/31/23,"$535,000.00 ",Qualified,FM,1.09,Residential,1998,3836,$139.47 ,34.4914408,-83.770079
515,15006A014001,5656 HEMLOCK ST,5/31/23,"$187,000.00 ",Qualified,FM,0.37,Residential,1986,924,$0.00 ,34.3827548,-83.6689807
516,15022C000007A,2328 EAST DENNIS DR,5/31/23,"$40,000.00 ",Qualified,FM,0.46,Residential,1997,0,$0.00 ,34.2743849,-83.7757817
517,10076 000103,4211 PRICE RD,5/31/23,"$216,000.00 ",Qualified,FM,0.59,Residential,1996,1435,$150.52 ,34.3793852,-83.9021026
518,15039 000132,6011 RIVERVIEW PKWY,5/31/23,"$450,000.00 ",Qualified,FM,0.22,Residential,2015,2411,$186.64 ,34.1249502,-83.8327804
519,08024 006148,4502 SW SILVER OAK DR,5/31/23,"$528,526.00 ",Qualified,FM,0.19,Residential,2022,3466,$152.49 ,34.2532969,-83.8672029
520,10122 000003F,3159 TANYARD BRANCH RD,5/31/23,"$1,525,000.00 ",Qualified,FM,0.71,Residential,1988,2670,$571.16 ,34.3578104,-83.8519823
521,08151 002110,5313 SUMMER OAK LN,5/31/23,"$724,900.00 ",Qualified,FM,0.35,Residential,2022,3731,$194.29 ,34.1544841,-83.9477309
522,15015B000076,3031 SADDLE CREEK DR,5/31/23,"$334,900.00 ",Qualified,FM,0.65,Residential,1997,1386,$241.63 ,34.2705976,-83.7421382
523,08024 006250,4503 SW CEDAR OAK CT,5/31/23,"$462,155.00 ",Qualified,FM,0.2,Residential,2022,2690,$171.80 ,34.2544813,-83.8682381
524,01071 002005,1080 NW WESSELL RD,5/31/23,"$950,000.00 ",Qualified,FM,0.89,Residential,1967,2949,$322.14 ,34.3112667,-83.8388917
525,15023D002065,3054 BRONCO LN,5/30/23,"$315,000.00 ",Qualified,FM,0.3,Residential,2005,1773,$177.66 ,34.2548119,-83.7479888
526,10024 000108,6005 CALEDONIA CT,5/30/23,"$535,207.00 ",Qualified,FM,0.33,Residential,2022,2761,$193.85 ,34.3501177,-83.9511446
527,11040 000029,5910 HUBERT STEPHENS RD,5/30/23,"$375,000.00 ",Qualified,FM,2,Residential,1997,1909,$196.44 ,34.4237169,-83.8690249
528,09124 000230,3743 NE SHADES VALLEY LN,5/30/23,"$315,000.00 ",Qualified,FM,0.05,Residential,2019,1506,$209.16 ,34.3282405,-83.7977575
529,08137B000109,5489 WINDING RIDGE TRL,5/30/23,"$1,200,000.00 ",Qualified,FM,4.29,Residential,2020,4978,$241.06 ,34.1531838,-83.9407051
530,15039 000619,6435 AUTUMN CREST LN,5/30/23,"$550,000.00 ",Qualified,FM,0.23,Residential,2010,2652,$207.39 ,34.127202,-83.850926
531,15021 000170,3090 PIERCE RD,5/30/23,"$333,000.00 ",Qualified,FM,1.6,Residential,2007,1738,$191.60 ,34.2991488,-83.7535899
532,11046 000008,648 ROBIN HOOD DR,5/30/23,"$225,000.00 ",Qualified,FM,1.47,Residential,0,0,$0.00 ,34.480327,-83.8660699
533,01073 002042,460 NW HOLLY DR,5/30/23,"$350,000.00 ",Qualified,FM,0.35,Residential,1958,1496,$233.96 ,34.3157095,-83.8382909
534,08118B000024,6272 SHOREVIEW CIR,5/30/23,"$300,000.00 ",Qualified,FM,0.11,Residential,2004,1506,$199.20 ,34.182742,-83.934368
535,00133C000004,233 CRONIC DR,5/30/23,"$290,000.00 ",Qualified,FM,0.53,Residential,1950,896,$323.66 ,34.2705931,-83.8428481
536,15042 000562,6897 LANCASTER XING,5/30/23,"$480,000.00 ",Qualified,FM,0.21,Residential,2020,3014,$159.26 ,34.1372976,-83.8879256
537,15047 002245,6984 RIVER ROCK DR,5/30/23,"$617,299.00 ",Qualified,FM,0.21,Residential,2022,2296,$268.86 ,34.1459886,-83.9090017
538,08042B000170,4724 SW AUTUMN ROSE TRL,5/30/23,"$270,000.00 ",Qualified,FM,0.03,Residential,2003,1248,$216.35 ,34.2483752,-83.8940212
539,15047 002214,6921 RIVER ROCK DR,5/30/23,"$542,719.00 ",Qualified,FM,0.14,Residential,2022,2020,$268.67 ,34.147929,-83.9092189
540,08042A000542,4725 MEDLOCK LN,5/30/23,"$314,990.00 ",Qualified,FM,0.06,Residential,2022,1654,$190.44 ,34.242886,-83.892246
541,08021 001128,3316 SW INDIAN HAWTHORNE RDG,5/30/23,"$750,000.00 ",Qualified,FM,0.23,Residential,2007,2778,$269.98 ,34.2870484,-83.8857108
542,15047 000629,7212 LAKE STERLING BLVD,5/30/23,"$569,000.00 ",Qualified,FM,0.22,Residential,2012,3775,$150.73 ,34.1486919,-83.905041
543,10024 000176,5971 BELAFONTE WALK,5/30/23,"$632,008.00 ",Qualified,FM,0.35,Residential,2023,3210,$196.89 ,34.3487489,-83.9517351
544,08024 006209,4489 SW MILL OAK WAY,5/30/23,"$489,780.00 ",Qualified,FM,0.22,Residential,2022,2776,$176.43 ,34.2531121,-83.8693975
545,15048D000037,6412 RIVER HILL DR,5/30/23,"$249,300.00 ",Qualified,FM,1.05,Residential,1994,1220,$204.34 ,34.1292087,-83.8955216
546,08042A000066,4751 CRAWFORD OAKS DR,5/30/23,"$260,000.00 ",Qualified,FM,0.09,Residential,2001,1176,$221.09 ,34.2405831,-83.8884731
547,15048 001061,3277 LONG CREEK DR,5/30/23,"$550,000.00 ",Qualified,FM,0.18,Residential,2020,3402,$161.67 ,34.1132928,-83.9029717
548,12064B001003,226 DEAN ST,5/26/23,"$370,000.00 ",Qualified,FM,0.52,Residential,2001,1974,$187.44 ,34.47694,-83.7754085
549,15047 000965,6817 BUNGALOW RD,5/26/23,"$482,800.00 ",Qualified,FM,0.15,Residential,2022,1869,$258.32 ,34.1499734,-83.9114066
550,15048D000010,6314 BENT OAKS CT,5/26/23,"$300,000.00 ",Qualified,FM,0.69,Residential,1993,1352,$221.89 ,34.123403,-83.8954802
551,15041 000599,5785 MIRAVISTA WAY,5/26/23,"$566,595.00 ",Qualified,FM,0.16,Residential,2023,1864,$303.97 ,34.1016001,-83.8649842
552,10155 000001,4104 AUTRY RD,5/26/23,"$305,000.00 ",Qualified,FM,1.02,Residential,1946,1008,$302.58 ,34.3927673,-83.7783944
553,15047W000104,6746 BIRCH BARK WAY,5/26/23,"$425,000.00 ",Qualified,FM,0.17,Residential,2016,1700,$250.00 ,34.1521821,-83.9073172
554,08149 000082,6367 SNELLING MILL RD,5/26/23,"$1,149,000.00 ",Qualified,FM,1.06,Residential,2022,4256,$269.97 ,34.16896,-83.962525
555,15041 000561,5772 GRAPEWOOD ST,5/26/23,"$466,390.00 ",Qualified,FM,0.15,Residential,2023,1613,$289.14 ,34.1029198,-83.8609504
556,10008 000013,5978 WELLINGTON AVE,5/26/23,"$845,000.00 ",Qualified,FM,0.93,Residential,2018,1601,$527.80 ,34.3676064,-83.967791
557,15047G000076,7041 BLACKBIRD CT,5/26/23,"$399,900.00 ",Qualified,FM,0.19,Residential,2021,1860,$215.00 ,34.1565626,-83.9151974
558,10072 003081,2755 FRAN MAR DR,5/26/23,"$282,500.00 ",Qualified,FM,0.36,Residential,1970,1300,$217.31 ,34.3451114,-83.8999918
559,08102 001027,6026 JIM CROW RD,5/26/23,"$2,400,000.00 ",Qualified,FM,2.01,Residential,1997,4689,$511.84 ,34.2227121,-83.9383888
560,10017 000154,7026 HAMMOCK TRL,5/26/23,"$758,750.00 ",Qualified,FM,0.32,Residential,2022,2128,$356.56 ,34.3537025,-83.96223
561,10024 000193,6006 MORNING STAR LN,5/26/23,"$604,000.00 ",Qualified,FM,0.28,Residential,2022,3120,$193.59 ,34.3487771,-83.9506063
562,15039 000264,6231 HARRIS CT,5/26/23,"$430,000.00 ",Qualified,FM,0.33,Residential,2006,2803,$153.41 ,34.12418,-83.8355564
563,08121 000031,6537 COX DR,5/26/23,"$1,900,000.00 ",Qualified,FM,0.39,Residential,2015,4681,$405.90 ,34.2055174,-83.9503416
564,10122 000042,3152 TANYARD BRANCH RD,5/26/23,"$670,000.00 ",Qualified,FM,0.63,Residential,1996,3253,$205.96 ,34.3570664,-83.8530799
565,10134 000017,2710 NORTHLAKE RD,5/26/23,"$607,980.00 ",Qualified,FM,0.58,Residential,1985,1787,$340.22 ,34.3613574,-83.8276009
566,10118 000016,4452 WILD TURKEY WAY,5/26/23,"$3,100,000.00 ",Qualified,FM,1.52,Residential,2000,11898,$260.55 ,34.3924274,-83.8533077
567,08138 002090,6028 WADE ORR RD,5/26/23,"$675,000.00 ",Qualified,FM,0.35,Residential,2022,3581,$188.49 ,34.1647051,-83.9417884
568,08033 000108,3523 PAIGE CT,5/26/23,"$381,500.00 ",Qualified,FM,0.53,Residential,1997,2140,$178.27 ,34.268842,-83.8908441
569,15043C000031,5359 ASHLAND DR,5/25/23,"$380,000.00 ",Qualified,FM,0.4,Residential,1996,1636,$232.27 ,34.1523954,-83.8815501
570,15043B000027,5158 SAGEWOOD DR,5/25/23,"$339,000.00 ",Qualified,FM,0.64,Residential,1998,1218,$278.33 ,34.1580505,-83.8755673
571,08141 006012,6507 BERMUDA LN,5/25/23,"$379,000.00 ",Qualified,FM,2.68,Residential,1976,1494,$253.68 ,34.1842467,-83.9560897
572,15047G000061,6871 SCARLET OAK WAY,5/25/23,"$499,750.00 ",Qualified,FM,0.15,Residential,2021,2556,$195.52 ,34.1571165,-83.9134004
573,15048D000016,6510 RIVER HILL DR,5/25/23,"$293,000.00 ",Qualified,FM,0.72,Residential,1995,1166,$251.29 ,34.124447,-83.8929552
574,01069 003001,155 NW PIEDMONT AVE,5/25/23,"$419,000.00 ",Qualified,FM,0.55,Residential,1952,2070,$202.42 ,34.3122472,-83.83046
575,08042A000546,4741 MEDLOCK LN,5/25/23,"$309,990.00 ",Qualified,FM,0.06,Residential,2022,1654,$187.42 ,34.243285,-83.892281
576,15032C002002,2309 FERN DR,5/25/23,"$160,000.00 ",Qualified,FM,0.61,Residential,1978,1156,$138.41 ,34.2932071,-83.7906272
577,15047 002257,6936 RIVER ROCK DR,5/25/23,"$489,011.00 ",Qualified,FM,0.14,Residential,2022,2034,$240.42 ,34.147682,-83.909735
578,11158A000156,7733 ELM CIR,5/25/23,"$585,000.00 ",Qualified,FM,0.26,Residential,1985,1798,$325.36 ,34.4143711,-83.9799447
579,15047 000259,7811 BENCHMARK DR,5/25/23,"$620,000.00 ",Qualified,FM,0.28,Residential,2004,2969,$208.82 ,34.1373762,-83.9012748
580,01043 001074,804 NW WILSHIRE RD,5/25/23,"$580,000.00 ",Qualified,FM,0.74,Residential,2021,1856,$312.50 ,34.305621,-83.84224
581,15042I000006,5315 AMBER COVE WAY,5/25/23,"$380,000.00 ",Qualified,FM,0.94,Residential,2000,2479,$153.29 ,34.1458146,-83.8628959
582,08118 001154,6018 YACHT WAY,5/25/23,"$346,100.00 ",Qualified,FM,0.09,Residential,2016,2247,$154.03 ,34.1854235,-83.9307858
583,08032 000068,3741 WINDY HILL CIR,5/25/23,"$325,000.00 ",Qualified,FM,0.48,Residential,1974,1824,$178.18 ,34.2647127,-83.8834753
584,15043B000057,5179 SAGEWOOD DR,5/25/23,"$330,000.00 ",Qualified,FM,0.9,Residential,1996,1140,$289.47 ,34.1566712,-83.874822
585,08045 001118,4513 PRESTWICK DR,5/25/23,"$310,000.00 ",Qualified,FM,0.59,Residential,1995,1188,$260.94 ,34.2251664,-83.8754017
586,08099 000106,5324 BRIGGS ST,5/24/23,"$300,000.00 ",Qualified,FM,0.05,Residential,2023,1952,$153.69 ,34.2031526,-83.9166753
587,08098A000126,4942 VIREO DR,5/24/23,"$290,000.00 ",Qualified,FM,0.02,Residential,2002,1692,$171.39 ,34.1902726,-83.9168346
588,15041H000038,2963 CLIMBING ROSE ST,5/24/23,"$555,500.00 ",Qualified,FM,0.41,Residential,2006,3329,$166.87 ,34.1079777,-83.8926032
589,00109 001049,2215 BOY SCOUT CAMP RD,5/24/23,"$175,000.00 ",Qualified,FM,0.54,Residential,1968,1293,$135.34 ,34.3196299,-83.8709588
590,08134A000101,6294 SATURN DR,5/24/23,"$400,000.00 ",Qualified,FM,0.36,Residential,2000,1726,$231.75 ,34.1633547,-83.9318531
591,08042A000543,4729 MEDLOCK LN,5/24/23,"$309,990.00 ",Qualified,FM,0.06,Residential,2022,1660,$186.74 ,34.242952,-83.892249
592,15047 000610,7303 BIRD SONG PL,5/24/23,"$506,000.00 ",Qualified,FM,0.32,Residential,2013,3434,$147.35 ,34.148705,-83.904616
593,15044 000177,5016 DEER CREEK CT,5/24/23,"$950,000.00 ",Qualified,FM,1.01,Residential,2006,4265,$222.74 ,34.183452,-83.867821
594,15041D000200,6331 HICKORY BRANCH DR,5/24/23,"$703,000.00 ",Qualified,FM,0.32,Residential,2007,2919,$240.84 ,34.1251879,-83.8673891
595,15037L000053,4377 PINE VALE RD,5/24/23,"$450,000.00 ",Qualified,FM,1.21,Residential,2002,1768,$254.52 ,34.1872025,-83.8275594
596,08151 002107,5325 SUMMER OAK LN,5/24/23,"$687,900.00 ",Qualified,FM,0.24,Residential,2023,3820,$180.08 ,34.1542951,-83.948517
597,01104 001018,126 NW WOODLAKE DR,5/23/23,"$820,000.00 ",Qualified,FM,1,Residential,1976,4344,$188.77 ,34.3491932,-83.8558758
598,15029B000106,5406 WOODSTREAM CT,5/23/23,"$474,900.00 ",Qualified,FM,0.98,Residential,2005,2335,$203.38 ,34.1770034,-83.8025051
599,10059A000002,3407 OSCEOLA TRL,5/23/23,"$435,000.00 ",Qualified,FM,0.58,Residential,1998,1905,$228.35 ,34.3486578,-83.9213655
600,08081 009001A,5178 BROWNS BRIDGE RD,5/23/23,"$324,900.00 ",Qualified,FM,0.55,Residential,1944,1712,$189.78 ,34.264899,-83.9333837
601,00131 002015A,140 MCCONNELL DR,5/23/23,"$240,000.00 ",Qualified,FM,0.67,Residential,1967,1715,$139.94 ,34.2800033,-83.8339405
602,15047C000117,7208 WHITEWATER DR,5/23/23,"$705,000.00 ",Qualified,FM,0.17,Residential,2021,3100,$227.42 ,34.144711,-83.9016059
603,09046A000012,6970 WHEELER RD,5/23/23,"$315,000.00 ",Qualified,FM,1.67,Residential,2022,1569,$200.76 ,34.4132401,-83.6493792
604,15042 000464,7043 LANCASTER XING,5/23/23,"$500,000.00 ",Qualified,FM,0.2,Residential,2021,2903,$172.24 ,34.139217,-83.8921273
605,01040 004015,518 NW BRADFORD ST,5/22/23,"$530,000.00 ",Qualified,FM,0.17,Residential,1940,1911,$277.34 ,34.3048453,-83.8301663
606,10062 000031,3409 SPRINGDALE FORREST AVE,5/22/23,"$265,000.00 ",Qualified,FM,0.75,Residential,1998,1362,$194.57 ,34.3193874,-83.9188623
607,15041 000006I,2695 FRIENDSHIP RD,5/22/23,"$149,000.00 ",Qualified,FM,1.23,Residential,1993,540,$275.93 ,34.1105046,-83.8871701
608,10011B000016,5762 RIDGEWATER CIR,5/18/23,"$460,000.00 ",Qualified,FM,0.75,Residential,2007,2797,$164.46 ,34.3991721,-83.968101
609,01071 002010,576 NW STILLWOOD DR,5/22/23,"$543,500.00 ",Qualified,FM,0.46,Residential,1952,2138,$254.21 ,34.3102865,-83.8378766
610,08138 003042,5936 ASHLEY FALLS LN,5/22/23,"$840,000.00 ",Qualified,FM,0.48,Residential,2019,4698,$178.80 ,34.1641616,-83.9389886
611,15007A000160,5372 ROCKY BLUFF WAY,5/22/23,"$310,000.00 ",Qualified,FM,1.18,Residential,2007,1630,$190.18 ,34.3678725,-83.6893339
612,15041 000622,5724 MIRAVISTA WAY,5/22/23,"$842,680.00 ",Qualified,FM,0.2,Residential,2023,3716,$226.77 ,34.1020724,-83.8651167
613,08110 000041,6284 COVE CREEK DR,5/22/23,"$430,000.00 ",Qualified,FM,0.4,Residential,2008,2602,$165.26 ,34.200861,-83.934278
614,08032 000038,3705 TURKWOOD DR,5/22/23,"$445,000.00 ",Qualified,FM,0.66,Residential,2022,2401,$185.34 ,34.2611445,-83.8882361
615,10060 000104,3114 ARROWHEAD DR,5/22/23,"$380,000.00 ",Qualified,FM,0.51,Residential,1994,1721,$220.80 ,34.3381261,-83.9167934
616,08118 001158,6025 HARBOUR MIST DR,5/22/23,"$427,000.00 ",Qualified,FM,0.13,Residential,2016,2247,$190.03 ,34.1849503,-83.9308603
617,08041A000064,3730 OLD FLOWERY BRANCH RD,5/19/23,"$157,500.00 ",Qualified,FM,0.11,Residential,1981,1024,$153.81 ,34.2531746,-83.8879877
618,15047 000993,6837 BUNGALOW RD,5/19/23,"$483,684.00 ",Qualified,FM,0.15,Residential,2022,1972,$245.28 ,34.150126,-83.910737
619,08100 001081,5814 PARK PT,5/19/23,"$475,000.00 ",Qualified,FM,0.2,Residential,2018,2770,$171.48 ,34.2116733,-83.9260845
620,08031 004234,4538 SW HIDDEN CREEK DR,5/19/23,"$425,000.00 ",Qualified,FM,0.16,Residential,2016,2088,$203.54 ,34.2529532,-83.8783414
621,08151 002105,5407 SUMMER SPRUCE PL,5/19/23,"$679,900.00 ",Qualified,FM,0.26,Residential,2023,3810,$178.45 ,34.1523501,-83.9483909
622,01069 001008,440 NW DIXON DR,5/19/23,"$717,000.00 ",Qualified,FM,0.31,Residential,1950,1680,$426.79 ,34.3098188,-83.8337334
623,15037H000033,4402 OXBURGH PARK,5/19/23,"$672,500.00 ",Qualified,FM,0.6,Residential,1995,2753,$244.28 ,34.2008446,-83.8458723
624,15011 000052,4079 TWIN SPRINGS RD,5/19/23,"$270,000.00 ",Qualified,FM,1.14,Residential,1983,1085,$248.85 ,34.2477101,-83.7038263
625,15037G000018,4815 UPPER BERKSHIRE RD,5/19/23,"$630,000.00 ",Qualified,FM,0.48,Residential,1991,2938,$214.43 ,34.1926033,-83.8498076
626,10146 000018H,3134 LAKELAND RD,5/19/23,"$260,000.00 ",Qualified,FM,0.9,Residential,1984,1632,$159.31 ,34.3617866,-83.8095727
627,15047 002210,6905 RIVER ROCK DR,5/19/23,"$608,184.00 ",Qualified,FM,0.14,Residential,2022,1929,$315.28 ,34.1483939,-83.9095105
628,10086 000114,3464 ROCK RIDGE DR,5/19/23,"$245,000.00 ",Qualified,FM,0.33,Residential,1998,1270,$192.91 ,34.3147038,-83.8950662
629,08151 002098,5455 SUMMER PINE PL,5/19/23,"$700,000.00 ",Qualified,FM,0.28,Residential,2022,3793,$184.55 ,34.1536342,-83.9498454
630,15044K000024,4838 NETHERLANDS PL,5/19/23,"$405,000.00 ",Qualified,FM,0.91,Residential,1999,2454,$165.04 ,34.1962978,-83.8631029
631,01097B000049,2216 NE SANDRIDGE COMMONS LN,5/19/23,"$278,000.00 ",Qualified,FM,0.02,Residential,2019,1500,$185.33 ,34.3324199,-83.8400243
632,08038 002003,4305 CHEROKEE TRL,5/19/23,"$220,000.00 ",Qualified,FM,0.57,Residential,1983,1260,$174.60 ,34.2827245,-83.9170003
633,15043C000093,5216 KEYSTONE CT,5/19/23,"$345,000.00 ",Qualified,FM,0.31,Residential,1995,1218,$283.25 ,34.1580321,-83.8804116
634,08031A004101,4657 SW HIDDEN CREEK DR,5/19/23,"$372,500.00 ",Qualified,FM,0.14,Residential,2014,1734,$214.82 ,34.2490508,-83.8807428
635,10120 000100,3818 COCHRAN RD,5/19/23,"$375,000.00 ",Qualified,FM,1.93,Residential,1978,1345,$278.81 ,34.3693397,-83.8532042
636,08041A000007,3925 MOUNTAIN VIEW RD,5/19/23,"$178,000.00 ",Qualified,FM,0.11,Residential,1981,1024,$173.83 ,34.2538547,-83.8892293
637,08042A000537,4595 RUTLEDGE DR,5/19/23,"$314,990.00 ",Qualified,FM,0.06,Residential,2022,1764,$178.57 ,34.242713,-83.891656
638,08065 000022,5037 SOUTHGATE DR,5/19/23,"$300,000.00 ",Qualified,FM,0.34,Residential,1985,1388,$216.14 ,34.2402191,-83.9049169
639,15047 000400,7870 BRASS LANTERN DR,5/19/23,"$460,000.00 ",Qualified,FM,0.27,Residential,2006,2834,$162.31 ,34.1350942,-83.9067792
640,15039 000838,6022 WHITE SYCAMORE PL,5/18/23,"$476,480.00 ",Qualified,FM,0.16,Residential,2023,3308,$144.04 ,34.1291343,-83.8409263
641,10011B000066,5741 RIDGEWATER DR,5/18/23,"$469,950.00 ",Qualified,FM,0.63,Residential,2023,2580,$182.15 ,34.397334,-83.9705029
642,08042A000151,4918 OAK MEADOW LN,5/18/23,"$265,000.00 ",Qualified,FM,0.05,Residential,2003,1304,$203.22 ,34.2425863,-83.889892
643,08075 002129A,5374 ASTER PL,5/18/23,"$360,000.00 ",Qualified,FM,0.1,Residential,2020,2176,$165.44 ,34.2187344,-83.9069861
644,15012C000062,4669 TURNING LEAF DR,5/18/23,"$293,000.00 ",Qualified,FM,0.62,Residential,2001,1186,$247.05 ,34.2351371,-83.6973072
645,15037M000025,4262 GOLDMONT TER,5/18/23,"$340,000.00 ",Qualified,FM,0.66,Residential,1998,1253,$271.35 ,34.1933165,-83.8269379
646,10080 000066,4113 ADA CREEK DR,5/18/23,"$313,000.00 ",Qualified,FM,0.59,Residential,1999,2226,$140.61 ,34.3700768,-83.8918
647,15028 000181,4031 SILVERSTONE DR,5/17/23,"$745,000.00 ",Qualified,FM,0.51,Residential,2018,4182,$178.14 ,34.1641035,-83.7949177
648,08110 000127,6516 TEAL TRAIL DR,5/17/23,"$547,000.00 ",Qualified,FM,0.54,Residential,2019,2592,$211.03 ,34.2048923,-83.936249
649,01083 001064,1708 NE FAIRVIEW DR,5/17/23,"$468,000.00 ",Qualified,FM,0.62,Residential,1961,2394,$195.49 ,34.3157777,-83.8079147
650,10114 000186,3497 MILLERS PL,5/17/23,"$449,065.00 ",Qualified,FM,0.95,Residential,2004,1773,$253.28 ,34.3622679,-83.8655049
651,15004 000150,5503 HAWTHORN DR,5/17/23,"$335,000.00 ",Qualified,FM,2.25,Residential,2019,1300,$257.69 ,34.318465,-83.666438
652,15028 000212,4110 GENTLE BREEZE WAY,5/17/23,"$1,171,617.00 ",Qualified,FM,1.96,Residential,2022,4192,$279.49 ,34.161231,-83.795081
653,00053 005032,10 STALLWORTH ST,5/17/23,"$283,500.00 ",Qualified,FM,0.29,Residential,1922,1146,$247.38 ,34.2821334,-83.8204317
654,15041 000624,5704 MIRAVISTA WAY,5/17/23,"$822,190.00 ",Qualified,FM,0.2,Residential,2023,3530,$232.92 ,34.1020727,-83.865117
655,10115 000176,3813 CHEROKEE FRD,5/17/23,"$395,000.00 ",Qualified,FM,0.8,Residential,1977,1932,$204.45 ,34.3753652,-83.8605352
656,15039 000726,5870 UNION GROVE DR,5/16/23,"$450,770.00 ",Qualified,FM,0.16,Residential,2022,2734,$164.88 ,34.1303277,-83.8407322
657,08053 004037,5188 FOX DEN RD,5/16/23,"$425,490.00 ",Qualified,FM,0.19,Residential,2023,2421,$175.75 ,34.2332937,-83.8945778
658,08098A000070,4834 ZEPHYR COVE PL,5/16/23,"$309,000.00 ",Qualified,FM,0.02,Residential,2004,1740,$177.59 ,34.1888912,-83.9170457
659,00123 008008,1437 HUDGINS ST,5/16/23,"$210,000.00 ",Qualified,FM,0.52,Residential,1951,1176,$178.57 ,34.2880342,-83.8482231
660,15047 002251,6960 RIVER ROCK DR,5/16/23,"$465,676.00 ",Qualified,FM,0.16,Residential,2022,1696,$274.57 ,34.146945,-83.909145
661,08120A000026,6417 ARBOR WOOD DR,5/16/23,"$1,595,000.00 ",Qualified,FM,0.48,Residential,1988,2145,$743.59 ,34.1960777,-83.9484806
662,15026C000115,4445 CANEY FORK CIR,5/16/23,"$432,000.00 ",Qualified,FM,0.58,Residential,2005,2640,$163.64 ,34.1588488,-83.7828731
663,15039G000215,6328 BLACK ROCK LN,5/16/23,"$373,000.00 ",Qualified,FM,0.11,Residential,2007,1356,$275.07 ,34.1153155,-83.8463318
664,15041D000303,6412 HICKORY BRANCH DR,5/15/23,"$695,000.00 ",Qualified,FM,0.27,Residential,2016,3034,$229.07 ,34.1283064,-83.8704328
665,08024 005221,4310 SW CLUBSIDE DR,5/15/23,"$500,876.00 ",Qualified,FM,0.18,Residential,2022,3480,$143.93 ,34.249966,-83.873111
666,10146 000178,3737 GRIFFIN DR,5/15/23,"$1,020,000.00 ",Qualified,FM,0.51,Residential,1993,2222,$459.05 ,34.3625763,-83.8008469
667,08111 003251,5903 SCREECH OWL DR,5/15/23,"$422,000.00 ",Qualified,FM,0.17,Residential,2021,2496,$169.07 ,34.192479,-83.9264337
668,08151 002100,5404 SUMMER SPRUCE PL,5/15/23,"$689,440.00 ",Qualified,FM,0.32,Residential,2022,3513,$196.25 ,34.154023,-83.949461
669,12028 000075,6204 RIVER RUN CIR,5/15/23,"$187,500.00 ",Qualified,FM,0.3,Residential,1986,960,$0.00 ,34.4243017,-83.8043498
670,08053 004094,5209 FOX DEN RD,5/15/23,"$334,900.00 ",Qualified,FM,0.06,Residential,2022,2020,$165.79 ,34.2332937,-83.8945778
671,08024 005481,4573 SW CYPRESS PARK DR,5/15/23,"$368,830.00 ",Qualified,FM,0.11,Residential,2022,1910,$193.10 ,34.2483209,-83.862479
672,08024 006223,4468 SW MILL OAK WAY,5/15/23,"$536,368.00 ",Qualified,FM,0.17,Residential,2021,3420,$156.83 ,34.25385,-83.8687659
673,08034 000357,3635 SW CRESSWIND PKWY,5/15/23,"$535,000.00 ",Qualified,FM,0.15,Residential,2017,1839,$290.92 ,34.2776339,-83.8893952
674,08012 009049,4342 SW BOX ELDER PATH,5/15/23,"$319,700.00 ",Qualified,FM,0.22,Residential,2015,2036,$157.02 ,34.2510037,-83.8651771
675,08024 005164,4381 SW CLUBSIDE DR,5/15/23,"$429,000.00 ",Qualified,FM,0.16,Residential,2017,2464,$174.11 ,34.2527929,-83.8728706
676,15022J000273,3117 SE LEGACY GLEN PATH,5/12/23,"$309,000.00 ",Qualified,FM,0.31,Residential,2014,1734,$178.20 ,34.2796669,-83.7631727
677,15047 000992,6833 BUNGALOW RD,5/12/23,"$485,856.00 ",Qualified,FM,0.14,Residential,2022,1897,$256.12 ,34.150083,-83.910889
678,08044A000038,3759 OAKWOOD HILLS DR,5/12/23,"$460,000.00 ",Qualified,FM,0.26,Residential,1989,1024,$112.30 ,34.237637,-83.8815785
679,10146 000201,3307 CLEARVIEW DR,5/12/23,"$307,500.00 ",Qualified,FM,0.58,Residential,1996,1540,$199.68 ,34.3674263,-83.8075002
680,07332 001072,2805 LAKEWIND CT,5/12/23,"$540,000.00 ",Qualified,FM,0.59,Residential,1994,2676,$201.79 ,34.1514447,-84.0023441
681,09066 004003,6310 GROVE ST,5/12/23,"$100,000.00 ",Qualified,FM,0.23,Residential,1870,960,$104.17 ,34.395502,-83.658062
682,15022J000225,3103 SE HERITAGE GLEN DR,5/12/23,"$380,000.00 ",Qualified,FM,0.36,Residential,2017,2934,$129.52 ,34.2762348,-83.7628409
683,15030K000065,4572 PERSIAN TRL,5/12/23,"$479,000.00 ",Qualified,FM,2.65,Residential,2004,2279,$210.18 ,34.2049168,-83.8098214
684,08151 002104,5411 SUMMER SPRUCE PL,5/12/23,"$739,900.00 ",Qualified,FM,0.39,Residential,2023,3828,$193.29 ,34.1537734,-83.9485573
685,08042A000534,4583 RUTLEDGE DR,5/12/23,"$314,990.00 ",Qualified,FM,0.06,Residential,2022,1654,$190.44 ,34.242474,-83.8916349
686,10128 000093,4120 WILLOW TRCE,5/12/23,"$1,450,000.00 ",Qualified,FM,0.5,Residential,1983,3120,$464.74 ,34.3716701,-83.8428481
687,12032 000073,5706 CRYSTAL WAY,5/12/23,"$385,000.00 ",Qualified,FM,4.09,Residential,2015,2068,$186.17 ,34.459846,-83.8066769
688,08111 003201,5820 SCREECH OWL DR,5/12/23,"$385,000.00 ",Qualified,FM,0.12,Residential,2021,2136,$180.24 ,34.1923278,-83.9286263
689,15042 000513,7133 BIRCH VIEW CT,5/12/23,"$549,990.00 ",Qualified,FM,0.3,Residential,2022,2124,$258.94 ,34.136629,-83.8900419
690,10016 000082,6105 GRAND MARINA CIR,5/12/23,"$1,113,000.00 ",Qualified,FM,1.06,Residential,2007,4563,$243.92 ,34.3519271,-83.9577644
691,15047 000964,6813 BUNGALOW RD,5/12/23,"$454,577.00 ",Qualified,FM,0.14,Residential,2022,1564,$290.65 ,34.149943,-83.911676
692,10017 000015,6728 HORSE SHOE CIR,5/12/23,"$1,133,500.00 ",Qualified,FM,0.54,Residential,2021,3738,$303.24 ,34.3501306,-83.9629536
693,15036C000225,3631 ABBEY WAY,5/12/23,"$285,000.00 ",Qualified,FM,0.06,Residential,2021,1600,$178.13 ,34.2200109,-83.8540533
694,08024 005478,4585 SW CYPRESS PARK DR,5/11/23,"$353,965.00 ",Qualified,FM,0.06,Residential,2022,1916,$184.74 ,34.2483209,-83.862479
695,08042A000536,4591 RUTLEDGE DR,5/11/23,"$313,490.00 ",Qualified,FM,0.06,Residential,2022,1641,$191.04 ,34.242714,-83.891543
696,01073 004013,281 NW WOODLAND DR,5/11/23,"$200,940.00 ",Qualified,FM,0.44,Residential,1955,1300,$154.57 ,34.3204111,-83.8372552
697,15035B001013,15 B AVE,5/11/23,"$210,000.00 ",Qualified,FM,0.34,Residential,1926,896,$234.38 ,34.2569317,-83.8446295
698,08024 005476,4593 SW CYPRESS PARK DR,5/11/23,"$358,215.00 ",Qualified,FM,0.09,Residential,2022,1912,$187.35 ,34.2483209,-83.862479
699,08015B000076,3023 SW BENTLEY PARK CIR,5/11/23,"$272,000.00 ",Qualified,FM,0.19,Residential,2000,1008,$269.84 ,34.2736242,-83.8735312
700,1.50E+17,2952 WALLACE RD,5/11/23,"$125,000.00 ",Qualified,FM,1.27,Residential,1988,1080,$115.74 ,34.2421967,-83.7694776
701,15042B000094,7062 RESERVE CT,5/11/23,"$396,000.00 ",Qualified,FM,0.59,Residential,2002,2276,$173.99 ,34.1240196,-83.8814384
702,15039 000077,5824 ANSLEY TER,5/11/23,"$390,000.00 ",Qualified,FM,0.22,Residential,2005,2321,$168.03 ,34.1262587,-83.8303772
703,15041 000276,5959 ROLLINGWOOD WAY,5/11/23,"$442,500.00 ",Qualified,FM,0.13,Residential,2020,1414,$312.94 ,34.10901,-83.8561036
704,15047 002208,6897 RIVER ROCK DR,5/11/23,"$598,671.00 ",Qualified,FM,0.14,Residential,2022,2690,$222.55 ,34.1486619,-83.909676
705,08042A000071,4737 CRAWFORD OAKS DR,5/11/23,"$260,000.00 ",Qualified,FM,0.08,Residential,2001,1420,$183.10 ,34.2407281,-83.8889435
706,08034 000298,3934 SW SWEET MAGNOLIA DR,5/10/23,"$475,000.00 ",Qualified,FM,0.16,Residential,2017,1326,$358.22 ,34.2745272,-83.8938345
707,08042A000535,4587 RUTLEDGE DR,5/10/23,"$313,490.00 ",Qualified,FM,0.06,Residential,2022,1664,$188.40 ,34.24248,-83.891527
708,15047 002250,6964 RIVER ROCK DR,5/10/23,"$483,990.00 ",Qualified,FM,0.14,Residential,2022,1856,$260.77 ,34.1467321,-83.9091445
709,15047 000458,7431 PROMENADE CT,5/10/23,"$645,000.00 ",Qualified,FM,0.6,Residential,2006,2639,$244.41 ,34.1423477,-83.902413
710,15039 000836,6014 WHITE SYCAMORE PL,5/10/23,"$482,480.00 ",Qualified,FM,0.17,Residential,2023,3308,$145.85 ,34.1291343,-83.8409263
711,09113A001145,3019 BIG TREE RD,5/10/23,"$300,000.00 ",Qualified,FM,0.37,Residential,1989,1206,$248.76 ,34.3431432,-83.7860246
712,15041 000595,5031 ADLER CT,5/10/23,"$562,190.00 ",Qualified,FM,0.16,Residential,2022,1805,$311.46 ,34.1016341,-83.8626387
713,15037A000060,4547 BLOOMING WAY,5/10/23,"$450,000.00 ",Qualified,FM,0.82,Residential,2002,2962,$151.92 ,34.1812792,-83.8514024
714,15047F000025,7429 MOCKINGBIRD LN,5/9/23,"$540,000.00 ",Qualified,FM,0.23,Residential,2013,3284,$164.43 ,34.1507389,-83.9070275
715,15039 000174,6136 SUMMERALL CIR,5/9/23,"$420,000.00 ",Qualified,FM,0.12,Residential,2016,2452,$171.29 ,34.1231226,-83.8317445
716,08054 003081,4731 WAVERLY WAY,5/9/23,"$339,900.00 ",Qualified,FM,0.93,Residential,1986,1578,$215.40 ,34.2468354,-83.8996606
717,15044C000124,3807 STONEY CREEK DR,5/9/23,"$340,000.00 ",Qualified,FM,0.24,Residential,1996,1213,$280.30 ,34.203815,-83.8628545
718,01064 002019,1407 NE VINE ST,5/9/23,"$339,000.00 ",Qualified,FM,0.46,Residential,1965,1269,$267.14 ,34.3115017,-83.8130959
719,15047F000031,7535 BREEZY LAKE LN,5/9/23,"$552,000.00 ",Qualified,FM,0.38,Residential,2013,3415,$161.64 ,34.1515308,-83.9064067
720,08034 000250,3951 SW GREAT PINE DR,5/9/23,"$750,000.00 ",Qualified,FM,0.23,Residential,2016,3844,$195.11 ,34.2759726,-83.8938038
721,08078 000072,5681 MALLARD XING,5/9/23,"$425,000.00 ",Qualified,FM,0.64,Residential,1984,1978,$214.86 ,34.2386872,-83.9237445
722,08054 004248,4891 HILLSTONE DR,5/8/23,"$377,385.00 ",Qualified,FM,0.1,Residential,2022,2322,$162.53 ,34.2455569,-83.895906
723,15039M000181,6537 AUTUMN CREST LN,5/8/23,"$635,000.00 ",Qualified,FM,0.26,Residential,2009,2743,$231.50 ,34.1250231,-83.8467629
724,15006A012001,5769 HEMLOCK ST,5/8/23,"$165,000.00 ",Qualified,FM,0.4,Residential,1983,1041,$158.50 ,34.3847435,-83.6665295
725,15041 000609,5884 MIRAVISTA WAY,5/8/23,"$598,080.00 ",Qualified,FM,0.21,Residential,2023,2294,$260.71 ,34.1020727,-83.865117
726,08053 004098,5225 FOX DEN RD,5/8/23,"$329,900.00 ",Qualified,FM,0.06,Residential,2022,2020,$163.32 ,34.2332937,-83.8945778
727,08024 006151,4490 SW SILVER OAK DR,5/5/23,"$469,990.00 ",Qualified,FM,0.19,Residential,2022,2674,$175.76 ,34.2532969,-83.8672029
728,15047 000989,6821 BUNGALOW RD,5/5/23,"$505,985.00 ",Qualified,FM,0.15,Residential,2022,1906,$265.47 ,34.149979,-83.911352
729,07332 001084,2808 WINDRUSH DR,5/5/23,"$510,000.00 ",Qualified,FM,0.6,Residential,1994,2648,$192.60 ,34.15047,-84.0036663
730,15009 000103,4372 WHIPORWILL RD,5/5/23,"$265,000.00 ",Qualified,FM,2.27,Residential,2023,1568,$0.00 ,34.3041146,-83.6895935
731,15037J000019,5224 WOODGREEN TRL,5/5/23,"$320,000.00 ",Qualified,FM,0.7,Residential,1991,1376,$232.56 ,34.1763031,-83.8337334
732,15016 000166,3185 GAINES MILL RD,5/5/23,"$331,200.00 ",Qualified,FM,3.58,Residential,1997,1800,$184.00 ,34.2867118,-83.7495654
733,15023 000133A,3024 PRIEST CIR,5/5/23,"$389,000.00 ",Qualified,FM,1.11,Residential,2021,1700,$228.82 ,34.2444601,-83.7686999
734,15047M000002,7062 TREE HOUSE WAY,5/5/23,"$580,000.00 ",Qualified,FM,0.19,Residential,2019,3320,$174.70 ,34.1516659,-83.9012748
735,08169 001016,315 SLATE CT,5/5/23,"$1,110,000.00 ",Qualified,FM,0.37,Residential,2014,4496,$246.89 ,34.1441954,-83.9710157
736,01113 005014E,1134 NW CHESTATEE RD,5/5/23,"$360,200.00 ",Qualified,FM,0.53,Residential,1970,2429,$148.29 ,34.3098286,-83.8433867
737,09124 000235,3849 NE VALLEY VIEW CT,5/5/23,"$299,000.00 ",Qualified,FM,0.05,Residential,2020,1506,$198.54 ,34.328369,-83.7981779
738,08053 004088,5183 FOX DEN RD,5/5/23,"$350,000.00 ",Qualified,FM,0.06,Residential,2023,2127,$164.55 ,34.2332937,-83.8945778
739,15037G000074,4650 WINDSOR DR,5/5/23,"$599,900.00 ",Qualified,FM,0.74,Residential,1996,3079,$194.84 ,34.1943856,-83.8491034
740,15047K000081,6879 FLAGSTONE WAY,5/5/23,"$530,000.00 ",Qualified,FM,0.2,Residential,2015,2173,$243.90 ,34.1491399,-83.8938554
741,08148A002005,6500 GAINES FERRY RD,5/5/23,"$235,000.00 ",Qualified,FM,0.15,Residential,1973,1380,$170.29 ,34.1763421,-83.9711769
742,01095 001057,2174 NE SKYLINE DR,5/5/23,"$290,000.00 ",Qualified,FM,0.69,Residential,1960,1570,$184.71 ,34.3424955,-83.8210533
743,15041 000504,5606 VILLA CREST DR,5/5/23,"$430,533.00 ",Qualified,FM,0.13,Residential,2023,1388,$310.18 ,34.1041809,-83.859353
744,08023B000002,3604 SW MAPLE FORGE LN,5/5/23,"$440,000.00 ",Qualified,FM,0.66,Residential,1999,1906,$230.85 ,34.2578786,-83.8743458
745,10146 000115,3429 LAKELAND RD,5/5/23,"$358,000.00 ",Qualified,FM,0.54,Residential,1959,1290,$277.52 ,34.3679429,-83.8057592
746,15037 000031F,5195 STRICKLAND RD,5/5/23,"$535,000.00 ",Qualified,FM,2.12,Residential,1999,2349,$227.76 ,34.1775903,-83.8295321
747,08053 004087,5179 FOX DEN RD,5/5/23,"$345,000.00 ",Qualified,FM,0.06,Residential,2023,2072,$166.51 ,34.2332937,-83.8945778
748,15048 001141,3557 CREEK HOLW,5/4/23,"$465,000.00 ",Qualified,FM,0.15,Residential,2020,2297,$202.44 ,34.112842,-83.9069861
749,15039 000833,6002 WHITE SYCAMORE PL,5/4/23,"$466,980.00 ",Qualified,FM,0.22,Residential,2022,3007,$155.30 ,34.1291343,-83.8409263
750,12046 000046,4441 HIGHLAND GATE PKWY,5/4/23,"$379,900.00 ",Qualified,FM,0.56,Residential,2020,2159,$175.96 ,34.4130907,-83.7888235
751,10011 000009,6183 CARDINAL DR,5/4/23,"$925,000.00 ",Qualified,FM,0.38,Residential,2001,3217,$287.53 ,34.3922206,-83.9738268
752,08054 004210,4962 HILLSTONE DR,5/4/23,"$328,755.00 ",Qualified,FM,0.1,Residential,2022,1340,$245.34 ,34.2444321,-83.8953202
753,15039 000835,6010 WHITE SYCAMORE PL,5/4/23,"$477,980.00 ",Qualified,FM,0.17,Residential,2022,3308,$144.49 ,34.1291343,-83.8409263
754,15041 000589,5705 GRAPEWOOD ST,5/4/23,"$424,415.00 ",Qualified,FM,0.13,Residential,2023,1294,$327.99 ,34.1034025,-83.8605442
755,15029B000005,4888 SHERMAN ALLEN RD,5/4/23,"$270,000.00 ",Qualified,FM,1.84,Residential,1985,1365,$197.80 ,34.178608,-83.793571
756,08042A000034,4698 CRAWFORD OAKS DR,5/4/23,"$255,000.00 ",Qualified,FM,0.07,Residential,2001,1408,$181.11 ,34.24064,-83.889563
757,15022J000107,3048 SE HERITAGE GLEN DR,5/4/23,"$343,000.00 ",Qualified,FM,0.25,Residential,2016,1649,$208.00 ,34.2779673,-83.7654542
758,15022J000140,3166 SE HERITAGE GLEN DR,5/4/23,"$349,900.00 ",Qualified,FM,0.23,Residential,2018,2348,$149.02 ,34.2743221,-83.7609327
759,12063A001008,448 MAIN ST,5/4/23,"$350,000.00 ",Qualified,FM,0.94,Residential,1924,1900,$184.21 ,34.4793036,-83.7735422
760,15026C000090,4541 WHITE HORSE DR,5/3/23,"$425,000.00 ",Qualified,FM,0.65,Residential,2007,2535,$167.65 ,34.161879,-83.7875796
761,08024 005402,4416 SW BIRCH MEADOW TRL,5/3/23,"$420,000.00 ",Qualified,FM,0.2,Residential,2020,3350,$125.37 ,34.249302,-83.8709312
